GMAT/Inclined 50 to 53 degree/contact.txt

Target: FINCHSat

Observer: TorontoCOMMS
Start Time (UTC)            Stop Time (UTC)               Duration (s)         
04 Jun 2020 18:36:55.910    04 Jun 2020 18:37:15.271      19.361013849    
06 Jun 2020 12:32:31.775    06 Jun 2020 12:32:38.842      7.0661665988    
07 Jun 2020 11:57:18.916    07 Jun 2020 11:57:31.405      12.488759647    
12 Jun 2020 15:30:18.874    12 Jun 2020 15:30:40.336      21.462127729    
14 Jun 2020 09:22:57.095    14 Jun 2020 09:23:17.364      20.269869373    
19 Jun 2020 12:48:24.337    19 Jun 2020 12:48:45.342      21.004559426    
21 Jun 2020 06:38:29.847    21 Jun 2020 06:38:49.325      19.477106561    
25 Jun 2020 10:35:31.613    25 Jun 2020 10:35:40.957      9.3438263051    
27 Jun 2020 04:23:18.479    27 Jun 2020 04:23:37.969      19.489881524    
01 Jul 2020 08:14:50.150    01 Jul 2020 08:15:06.010      15.859155706    
03 Jul 2020 02:00:20.276    03 Jul 2020 02:00:38.651      18.374384847    
07 Jul 2020 05:46:03.866    07 Jul 2020 05:46:13.222      9.3559675966    
08 Jul 2020 00:11:00.154    08 Jul 2020 00:11:16.417      16.262819781    
12 Jul 2020 03:51:22.459    12 Jul 2020 03:51:36.842      14.382635162    
12 Jul 2020 22:15:19.811    12 Jul 2020 22:15:35.341      15.530274657    
17 Jul 2020 20:12:53.588    17 Jul 2020 20:13:13.066      19.478417281    
21 Jul 2020 00:27:20.467    21 Jul 2020 00:27:39.784      19.316717482    
01 Aug 2020 19:50:21.629    01 Aug 2020 19:50:36.481      14.852427109    
05 Aug 2020 18:07:15.843    05 Aug 2020 18:07:28.212      12.369176396    
06 Aug 2020 12:24:57.801    06 Aug 2020 12:25:16.364      18.563621084    
26 Aug 2020 09:55:48.429    26 Aug 2020 09:56:06.545      18.116018025    


Number of events : 21


Observer: TorontoImaging
Start Time (UTC)            Stop Time (UTC)               Duration (s)         
03 Jun 2020 19:11:15.643    03 Jun 2020 19:12:09.661      54.018658481    
04 Jun 2020 18:36:29.811    04 Jun 2020 18:37:41.427      71.616039018    
05 Jun 2020 13:07:12.822    05 Jun 2020 13:07:56.009      43.187182769    
05 Jun 2020 18:01:42.209    05 Jun 2020 18:02:50.053      67.844400415    
06 Jun 2020 12:32:02.368    06 Jun 2020 12:33:08.381      66.013193037    
06 Jun 2020 17:26:53.565    06 Jun 2020 17:27:34.621      41.055279539    
07 Jun 2020 11:56:52.033    07 Jun 2020 11:57:58.416      66.382562765    
08 Jun 2020 11:21:45.245    08 Jun 2020 11:22:22.640      37.394785916    
11 Jun 2020 16:06:16.214    11 Jun 2020 16:07:10.561      54.347497411    
12 Jun 2020 15:29:54.528    12 Jun 2020 15:31:04.756      70.227970392    
13 Jun 2020 09:59:17.851    13 Jun 2020 10:00:09.244      51.392280904    
13 Jun 2020 14:53:33.036    13 Jun 2020 14:54:32.527      59.491535090    
14 Jun 2020 09:22:33.859    14 Jun 2020 09:23:40.697      66.838056548    
15 Jun 2020 08:45:52.853    15 Jun 2020 08:46:46.685      53.831093805    
18 Jun 2020 13:25:50.099    18 Jun 2020 13:26:39.536      49.436598807    
19 Jun 2020 12:48:00.758    19 Jun 2020 12:49:08.990      68.232007383    
20 Jun 2020 07:16:15.375    20 Jun 2020 07:17:08.816      53.440489154    
20 Jun 2020 12:10:15.089    20 Jun 2020 12:11:08.160      53.071503527    
21 Jun 2020 06:38:06.891    21 Jun 2020 06:39:12.338      65.446663660    
22 Jun 2020 06:00:07.378    22 Jun 2020 06:00:44.829      37.451532553    
25 Jun 2020 10:35:04.299    25 Jun 2020 10:36:08.319      64.019889501    
26 Jun 2020 05:02:25.921    26 Jun 2020 05:03:06.053      40.132248437    
26 Jun 2020 09:55:59.328    26 Jun 2020 09:56:58.515      59.187791264    
27 Jun 2020 04:22:55.761    27 Jun 2020 04:24:00.706      64.944719151    
28 Jun 2020 03:43:36.544    28 Jun 2020 03:44:21.886      45.341792575    
01 Jul 2020 08:14:26.099    01 Jul 2020 08:15:30.079      63.979582500    
02 Jul 2020 02:40:41.867    02 Jul 2020 02:41:30.257      48.389694910    
02 Jul 2020 07:34:06.291    02 Jul 2020 07:34:58.359      52.067801845    
03 Jul 2020 01:59:57.222    03 Jul 2020 02:01:01.690      64.468064939    
04 Jul 2020 01:19:37.295    04 Jul 2020 01:19:44.227      6.9322795258    
06 Jul 2020 06:27:18.823    06 Jul 2020 06:28:09.523      50.699479203    
07 Jul 2020 00:52:52.852    07 Jul 2020 00:53:01.631      8.7785749580    
07 Jul 2020 05:45:37.662    07 Jul 2020 05:46:39.406      61.743585463    
08 Jul 2020 00:10:36.236    08 Jul 2020 00:11:40.296      64.059937815    
08 Jul 2020 23:28:43.735    08 Jul 2020 23:29:28.830      45.094439574    
11 Jul 2020 04:34:00.176    11 Jul 2020 04:34:42.049      41.872637370    
12 Jul 2020 03:50:58.523    12 Jul 2020 03:52:00.725      62.201651966    
12 Jul 2020 22:14:55.455    12 Jul 2020 22:15:59.641      64.186152618    
13 Jul 2020 21:31:46.455    13 Jul 2020 21:32:28.845      42.390204594    
16 Jul 2020 02:33:57.174    16 Jul 2020 02:34:49.452      52.277154964    
16 Jul 2020 20:57:12.918    16 Jul 2020 20:57:47.643      34.724869486    
17 Jul 2020 01:49:42.383    17 Jul 2020 01:50:39.263      56.880385755    
17 Jul 2020 20:12:30.486    17 Jul 2020 20:13:36.110      65.623685368    
21 Jul 2020 00:26:58.418    21 Jul 2020 00:28:01.733      63.315064693    
21 Jul 2020 18:48:56.792    21 Jul 2020 18:49:58.828      62.036294409    
21 Jul 2020 23:41:43.438    21 Jul 2020 23:42:00.863      17.424914602    
22 Jul 2020 18:03:14.011    22 Jul 2020 18:04:00.778      46.766737697    
24 Jul 2020 22:59:39.375    24 Jul 2020 23:00:39.198      59.823779063    
25 Jul 2020 17:20:43.114    25 Jul 2020 17:21:37.830      54.716328706    
25 Jul 2020 22:13:00.347    25 Jul 2020 22:13:42.278      41.930687183    
26 Jul 2020 16:33:39.875    26 Jul 2020 16:34:36.546      56.671029178    
28 Jul 2020 21:27:26.258    28 Jul 2020 21:28:24.835      58.576829417    
29 Jul 2020 15:47:29.466    29 Jul 2020 15:48:23.691      54.224640818    
29 Jul 2020 20:39:31.645    29 Jul 2020 20:40:13.870      42.225196247    
30 Jul 2020 14:59:11.343    30 Jul 2020 15:00:05.725      54.381940432    
01 Aug 2020 19:49:57.690    01 Aug 2020 19:51:00.304      62.613901729    
02 Aug 2020 14:08:54.106    02 Aug 2020 14:09:55.540      61.433911335    
02 Aug 2020 19:00:56.873    02 Aug 2020 19:01:12.434      15.561044519    
03 Aug 2020 13:19:29.998    03 Aug 2020 13:20:00.726      30.727700901    
05 Aug 2020 18:06:50.852    05 Aug 2020 18:07:53.102      62.249941158    
06 Aug 2020 12:24:34.745    06 Aug 2020 12:25:39.457      64.711811102    
08 Aug 2020 17:09:36.365    08 Aug 2020 17:10:35.151      58.785429108    
09 Aug 2020 11:26:25.005    09 Aug 2020 11:27:22.691      57.685624610    
09 Aug 2020 16:17:48.117    09 Aug 2020 16:18:12.900      24.782824237    
10 Aug 2020 10:34:20.745    10 Aug 2020 10:34:40.443      19.698598457    
11 Aug 2020 16:08:45.761    11 Aug 2020 16:09:16.562      30.801261845    
12 Aug 2020 10:24:31.435    12 Aug 2020 10:25:06.964      35.528980871    
12 Aug 2020 15:15:13.306    12 Aug 2020 15:16:05.716      52.409401909    
13 Aug 2020 09:30:40.351    13 Aug 2020 09:31:31.204      50.853271305    
15 Aug 2020 14:08:39.357    15 Aug 2020 14:09:37.693      58.335196122    
16 Aug 2020 08:22:59.847    16 Aug 2020 08:23:55.434      55.587392743    
18 Aug 2020 12:57:41.108    18 Aug 2020 12:58:38.495      57.387183700    
19 Aug 2020 07:10:51.372    19 Aug 2020 07:11:43.323      51.951584034    
21 Aug 2020 06:52:15.876    21 Aug 2020 06:52:43.716      27.840101207    
21 Aug 2020 11:41:57.790    21 Aug 2020 11:42:46.001      48.211290501    
22 Aug 2020 05:53:56.846    22 Aug 2020 05:54:27.670      30.824179330    
23 Aug 2020 11:20:33.247    23 Aug 2020 11:21:17.979      44.731825241    
24 Aug 2020 05:31:22.085    24 Aug 2020 05:32:14.301      52.216102125    
26 Aug 2020 09:55:27.924    26 Aug 2020 09:56:27.056      59.131534654    
27 Aug 2020 04:04:48.812    27 Aug 2020 04:05:42.346      53.534601687    
29 Aug 2020 03:35:25.570    29 Aug 2020 03:36:09.450      43.880218326    


Number of events : 81


