GMAT/Inclined 50 to 53 degree/Eclipse_track.txt

Spacecraft: FINCHSat

Start Time (UTC)            Stop Time (UTC)               Duration (s)    Occ Body        Type        Event Number  Total Duration (s)
01 Jun 2020 12:53:21.956    01 Jun 2020 12:53:31.681      9.7254479653    Earth           Penumbra    1             2058.7402317
01 Jun 2020 12:53:31.681    01 Jun 2020 13:27:31.032      2039.3508478    Earth           Umbra       1             2058.7402317
01 Jun 2020 13:27:31.032    01 Jun 2020 13:27:40.696      9.6639359021    Earth           Penumbra    1             2058.7402317
01 Jun 2020 14:27:13.703    01 Jun 2020 14:27:23.426      9.7229129635    Earth           Penumbra    2             2058.9136177
01 Jun 2020 14:27:23.426    01 Jun 2020 15:01:22.956      2039.5307585    Earth           Umbra       2             2058.9136177
01 Jun 2020 15:01:22.956    01 Jun 2020 15:01:32.616      9.6599462209    Earth           Penumbra    2             2058.9136177
01 Jun 2020 16:01:05.340    01 Jun 2020 16:01:15.060      9.7199146519    Earth           Penumbra    3             2059.0943031
01 Jun 2020 16:01:15.060    01 Jun 2020 16:35:14.779      2039.7191193    Earth           Umbra       3             2059.0943031
01 Jun 2020 16:35:14.779    01 Jun 2020 16:35:24.434      9.6552691190    Earth           Penumbra    3             2059.0943031
01 Jun 2020 17:34:56.908    01 Jun 2020 17:35:06.625      9.7168358741    Earth           Penumbra    4             2059.3029245
01 Jun 2020 17:35:06.625    01 Jun 2020 18:09:06.561      2039.9357833    Earth           Umbra       4             2059.3029245
01 Jun 2020 18:09:06.561    01 Jun 2020 18:09:16.211      9.6503053559    Earth           Penumbra    4             2059.3029245
01 Jun 2020 19:08:48.440    01 Jun 2020 19:08:58.154      9.7139032558    Earth           Penumbra    5             2059.5441476
01 Jun 2020 19:08:58.154    01 Jun 2020 19:42:58.339      2040.1847814    Earth           Umbra       5             2059.5441476
01 Jun 2020 19:42:58.339    01 Jun 2020 19:43:07.984      9.6454629209    Earth           Penumbra    5             2059.5441476
01 Jun 2020 20:42:39.920    01 Jun 2020 20:42:49.631      9.7109668655    Earth           Penumbra    6             2059.8075373
01 Jun 2020 20:42:49.631    01 Jun 2020 21:16:50.086      2040.4558603    Earth           Umbra       6             2059.8075373
01 Jun 2020 21:16:50.086    01 Jun 2020 21:16:59.727      9.6407100675    Earth           Penumbra    6             2059.8075373
01 Jun 2020 22:16:31.336    01 Jun 2020 22:16:41.043      9.7076598904    Earth           Penumbra    7             2060.0807561
01 Jun 2020 22:16:41.043    01 Jun 2020 22:50:41.781      2040.7374558    Earth           Umbra       7             2060.0807561
01 Jun 2020 22:50:41.781    01 Jun 2020 22:50:51.416      9.6356403781    Earth           Penumbra    7             2060.0807561
01 Jun 2020 23:50:22.716    01 Jun 2020 23:50:32.420      9.7037547617    Earth           Penumbra    8             2060.3566033
01 Jun 2020 23:50:32.420    02 Jun 2020 00:24:33.443      2041.0229558    Earth           Umbra       8             2060.3566033
02 Jun 2020 00:24:33.443    02 Jun 2020 00:24:43.073      9.6298926976    Earth           Penumbra    8             2060.3566033
02 Jun 2020 01:24:14.088    02 Jun 2020 01:24:23.787      9.6993655781    Earth           Penumbra    9             2060.6358244
02 Jun 2020 01:24:23.787    02 Jun 2020 01:58:25.100      2041.3129298    Earth           Umbra       9             2060.6358244
02 Jun 2020 01:58:25.100    02 Jun 2020 01:58:34.723      9.6235289471    Earth           Penumbra    9             2060.6358244
02 Jun 2020 02:58:05.418    02 Jun 2020 02:58:15.113      9.6947673708    Earth           Penumbra    10            2060.9257560
02 Jun 2020 02:58:15.113    02 Jun 2020 03:32:16.727      2041.6140264    Earth           Umbra       10            2060.9257560
02 Jun 2020 03:32:16.727    02 Jun 2020 03:32:26.344      9.6169621451    Earth           Penumbra    10            2060.9257560
02 Jun 2020 04:31:56.636    02 Jun 2020 04:32:06.326      9.6900129458    Earth           Penumbra    11            2061.2311267
02 Jun 2020 04:32:06.326    02 Jun 2020 05:06:08.257      2041.9306370    Earth           Umbra       11            2061.2311267
02 Jun 2020 05:06:08.257    02 Jun 2020 05:06:17.867      9.6104767523    Earth           Penumbra    11            2061.2311267
02 Jun 2020 06:05:47.697    02 Jun 2020 06:05:57.382      9.6849155962    Earth           Penumbra    12            2061.5504599
02 Jun 2020 06:05:57.382    02 Jun 2020 06:39:59.644      2042.2616096    Earth           Umbra       12            2061.5504599
02 Jun 2020 06:39:59.644    02 Jun 2020 06:40:09.247      9.6039347816    Earth           Penumbra    12            2061.5504599
02 Jun 2020 07:39:38.627    02 Jun 2020 07:39:48.307      9.6794618061    Earth           Penumbra    13            2061.8870120
02 Jun 2020 07:39:48.307    02 Jun 2020 08:13:50.917      2042.6104242    Earth           Umbra       13            2061.8870120
02 Jun 2020 08:13:50.917    02 Jun 2020 08:14:00.514      9.5971259521    Earth           Penumbra    13            2061.8870120
02 Jun 2020 09:13:29.507    02 Jun 2020 09:13:39.181      9.6739602392    Earth           Penumbra    14            2062.2519944
02 Jun 2020 09:13:39.181    02 Jun 2020 09:47:42.169      2042.9878406    Earth           Umbra       14            2062.2519944
02 Jun 2020 09:47:42.169    02 Jun 2020 09:47:51.759      9.5901935943    Earth           Penumbra    14            2062.2519944
02 Jun 2020 10:47:20.397    02 Jun 2020 10:47:30.066      9.6686035744    Earth           Penumbra    15            2062.6461041
02 Jun 2020 10:47:30.066    02 Jun 2020 11:21:33.460      2043.3940928    Earth           Umbra       15            2062.6461041
02 Jun 2020 11:21:33.460    02 Jun 2020 11:21:43.043      9.5834077103    Earth           Penumbra    15            2062.6461041
02 Jun 2020 12:21:11.276    02 Jun 2020 12:21:20.940      9.6631318680    Earth           Penumbra    16            2063.0497220
02 Jun 2020 12:21:20.940    02 Jun 2020 12:55:24.750      2043.8099557    Earth           Umbra       16            2063.0497220
02 Jun 2020 12:55:24.750    02 Jun 2020 12:55:34.326      9.5766343991    Earth           Penumbra    16            2063.0497220
02 Jun 2020 13:55:02.071    02 Jun 2020 13:55:11.728      9.6571635338    Earth           Penumbra    17            2063.4453982
02 Jun 2020 13:55:11.728    02 Jun 2020 14:29:15.947      2044.2188287    Earth           Umbra       17            2063.4453982
02 Jun 2020 14:29:15.947    02 Jun 2020 14:29:25.516      9.5694059506    Earth           Penumbra    17            2063.4453982
02 Jun 2020 15:28:52.749    02 Jun 2020 15:29:02.400      9.6507095732    Earth           Penumbra    18            2063.8409490
02 Jun 2020 15:29:02.400    02 Jun 2020 16:03:07.028      2044.6287107    Earth           Umbra       18            2063.8409490
02 Jun 2020 16:03:07.028    02 Jun 2020 16:03:16.590      9.5615287428    Earth           Penumbra    18            2063.8409490
02 Jun 2020 17:02:52.993    02 Jun 2020 17:36:58.054      2045.0605414    Earth           Umbra       19            2054.6138566
02 Jun 2020 17:36:58.054    02 Jun 2020 17:37:07.607      9.5533152111    Earth           Penumbra    19            2054.6138566
02 Jun 2020 18:36:33.910    02 Jun 2020 18:36:43.548      9.6377457026    Earth           Penumbra    20            2064.7059718
02 Jun 2020 18:36:43.548    02 Jun 2020 19:10:49.071      2045.5230587    Earth           Umbra       20            2064.7059718
02 Jun 2020 19:10:49.071    02 Jun 2020 19:10:58.616      9.5451673726    Earth           Penumbra    20            2064.7059718
02 Jun 2020 20:10:24.420    02 Jun 2020 20:10:34.051      9.6313863527    Earth           Penumbra    21            2065.1769251
02 Jun 2020 20:10:34.051    02 Jun 2020 20:44:40.060      2046.0084111    Earth           Umbra       21            2065.1769251
02 Jun 2020 20:44:40.060    02 Jun 2020 20:44:49.597      9.5371276606    Earth           Penumbra    21            2065.1769251
02 Jun 2020 21:44:14.860    02 Jun 2020 21:44:24.485      9.6247067093    Earth           Penumbra    22            2065.6575480
02 Jun 2020 21:44:24.485    02 Jun 2020 22:18:30.989      2046.5039645    Earth           Umbra       22            2065.6575480
02 Jun 2020 22:18:30.989    02 Jun 2020 22:18:40.518      9.5288767247    Earth           Penumbra    22            2065.6575480
02 Jun 2020 23:18:05.253    02 Jun 2020 23:18:14.871      9.6174628590    Earth           Penumbra    23            2066.1382610
02 Jun 2020 23:18:14.871    02 Jun 2020 23:52:21.872      2047.0007259    Earth           Umbra       23            2066.1382610
02 Jun 2020 23:52:21.872    02 Jun 2020 23:52:31.392      9.5200722688    Earth           Penumbra    23            2066.1382610
03 Jun 2020 00:51:55.630    03 Jun 2020 00:52:05.240      9.6097490983    Earth           Penumbra    24            2066.6179780
03 Jun 2020 00:52:05.240    03 Jun 2020 01:26:12.737      2047.4975309    Earth           Umbra       24            2066.6179780
03 Jun 2020 01:26:12.737    03 Jun 2020 01:26:22.248      9.5106979483    Earth           Penumbra    24            2066.6179780
03 Jun 2020 02:25:45.968    03 Jun 2020 02:25:55.570      9.6018505166    Earth           Penumbra    25            2067.1046103
03 Jun 2020 02:25:55.570    03 Jun 2020 03:00:03.572      2048.0016625    Earth           Umbra       25            2067.1046103
03 Jun 2020 03:00:03.572    03 Jun 2020 03:00:13.073      9.5010973164    Earth           Penumbra    25            2067.1046103
03 Jun 2020 03:59:36.200    03 Jun 2020 03:59:45.794      9.5938683255    Earth           Penumbra    26            2067.6055675
03 Jun 2020 03:59:45.794    03 Jun 2020 04:33:54.314      2048.5200985    Earth           Umbra       26            2067.6055675
03 Jun 2020 04:33:54.314    03 Jun 2020 04:34:03.806      9.4916007249    Earth           Penumbra    26            2067.6055675
03 Jun 2020 05:33:26.274    03 Jun 2020 05:33:35.860      9.5856387634    Earth           Penumbra    27            2068.1200928
03 Jun 2020 05:33:35.860    03 Jun 2020 06:07:44.912      2049.0522826    Earth           Umbra       27            2068.1200928
03 Jun 2020 06:07:44.912    03 Jun 2020 06:07:54.394      9.4821713981    Earth           Penumbra    27            2068.1200928
03 Jun 2020 07:07:16.206    03 Jun 2020 07:07:25.783      9.5771083958    Earth           Penumbra    28            2068.6485056
03 Jun 2020 07:07:25.783    03 Jun 2020 07:41:35.382      2049.5988042    Earth           Umbra       28            2068.6485056
03 Jun 2020 07:41:35.382    03 Jun 2020 07:41:44.854      9.4725930830    Earth           Penumbra    28            2068.6485056
03 Jun 2020 08:41:06.075    03 Jun 2020 08:41:15.644      9.5685399952    Earth           Penumbra    29            2069.2005420
03 Jun 2020 08:41:15.644    03 Jun 2020 09:15:25.813      2050.1690960    Earth           Umbra       29            2069.2005420
03 Jun 2020 09:15:25.813    03 Jun 2020 09:15:35.276      9.4629060128    Earth           Penumbra    29            2069.2005420
03 Jun 2020 10:14:55.951    03 Jun 2020 10:15:05.511      9.5601583016    Earth           Penumbra    30            2069.7804677
03 Jun 2020 10:15:05.511    03 Jun 2020 10:49:16.278      2050.7669597    Earth           Umbra       30            2069.7804677
03 Jun 2020 10:49:16.278    03 Jun 2020 10:49:25.731      9.4533497002    Earth           Penumbra    30            2069.7804677
03 Jun 2020 11:48:45.820    03 Jun 2020 11:48:55.371      9.5517564914    Earth           Penumbra    31            2070.3716858
03 Jun 2020 11:48:55.371    03 Jun 2020 12:23:06.747      2051.3760536    Earth           Umbra       31            2070.3716858
03 Jun 2020 12:23:06.747    03 Jun 2020 12:23:16.191      9.4438757398    Earth           Penumbra    31            2070.3716858
03 Jun 2020 13:22:35.607    03 Jun 2020 13:22:45.150      9.5429350622    Earth           Penumbra    32            2070.9531995
03 Jun 2020 13:22:45.150    03 Jun 2020 13:56:57.126      2051.9761864    Earth           Umbra       32            2070.9531995
03 Jun 2020 13:56:57.126    03 Jun 2020 13:57:06.560      9.4340780284    Earth           Penumbra    32            2070.9531995
03 Jun 2020 14:56:25.272    03 Jun 2020 14:56:34.806      9.5336402650    Earth           Penumbra    33            2071.5268687
03 Jun 2020 14:56:34.806    03 Jun 2020 15:30:47.375      2052.5695183    Earth           Umbra       33            2071.5268687
03 Jun 2020 15:30:47.375    03 Jun 2020 15:30:56.799      9.4237101381    Earth           Penumbra    33            2071.5268687
03 Jun 2020 16:30:14.851    03 Jun 2020 16:30:24.375      9.5242213109    Earth           Penumbra    34            2072.1137057
03 Jun 2020 16:30:24.375    03 Jun 2020 17:04:37.552      2053.1764895    Earth           Umbra       34            2072.1137057
03 Jun 2020 17:04:37.552    03 Jun 2020 17:04:46.965      9.4129949226    Earth           Penumbra    34            2072.1137057
03 Jun 2020 18:04:04.389    03 Jun 2020 18:04:13.904      9.5149862347    Earth           Penumbra    35            2072.7274764
03 Jun 2020 18:04:13.904    03 Jun 2020 18:38:27.714      2053.8101824    Earth           Umbra       35            2072.7274764
03 Jun 2020 18:38:27.714    03 Jun 2020 18:38:37.116      9.4023076817    Earth           Penumbra    35            2072.7274764
03 Jun 2020 19:37:53.878    03 Jun 2020 19:38:03.384      9.5058595994    Earth           Penumbra    36            2073.3636298
03 Jun 2020 19:38:03.384    03 Jun 2020 20:12:17.850      2054.4660300    Earth           Umbra       36            2073.3636298
03 Jun 2020 20:12:17.850    03 Jun 2020 20:12:27.242      9.3917401973    Earth           Penumbra    36            2073.3636298
03 Jun 2020 21:11:52.791    03 Jun 2020 21:46:07.922      2055.1312422    Earth           Umbra       37            2064.5122964
03 Jun 2020 21:46:07.922    03 Jun 2020 21:46:17.303      9.3810542137    Earth           Penumbra    37            2064.5122964
03 Jun 2020 22:45:32.654    03 Jun 2020 22:45:42.140      9.4866099302    Earth           Penumbra    38            2074.6512998
03 Jun 2020 22:45:42.140    03 Jun 2020 23:19:57.935      2055.7947343    Earth           Umbra       38            2074.6512998
03 Jun 2020 23:19:57.935    03 Jun 2020 23:20:07.305      9.3699555262    Earth           Penumbra    38            2074.6512998
04 Jun 2020 00:19:21.990    04 Jun 2020 00:19:31.466      9.4762939028    Earth           Penumbra    39            2075.2878483
04 Jun 2020 00:19:31.466    04 Jun 2020 00:53:47.919      2056.4531744    Earth           Umbra       39            2075.2878483
04 Jun 2020 00:53:47.919    04 Jun 2020 00:53:57.277      9.3583800131    Earth           Penumbra    39            2075.2878483
04 Jun 2020 01:53:11.290    04 Jun 2020 01:53:20.756      9.4658266869    Earth           Penumbra    40            2075.9261417
04 Jun 2020 01:53:20.756    04 Jun 2020 02:27:37.870      2057.1137315    Earth           Umbra       40            2075.9261417
04 Jun 2020 02:27:37.870    04 Jun 2020 02:27:47.216      9.3465835322    Earth           Penumbra    40            2075.9261417
04 Jun 2020 03:27:00.492    04 Jun 2020 03:27:09.948      9.4553512987    Earth           Penumbra    41            2076.5762246
04 Jun 2020 03:27:09.948    04 Jun 2020 04:01:27.734      2057.7859747    Earth           Umbra       41            2076.5762246
04 Jun 2020 04:01:27.734    04 Jun 2020 04:01:37.069      9.3348986353    Earth           Penumbra    41            2076.5762246
04 Jun 2020 05:00:49.537    04 Jun 2020 05:00:58.982      9.4447366660    Earth           Penumbra    42            2077.2390649
04 Jun 2020 05:00:58.982    04 Jun 2020 05:35:17.453      2058.4709469    Earth           Umbra       42            2077.2390649
04 Jun 2020 05:35:17.453    04 Jun 2020 05:35:26.776      9.3233812717    Earth           Penumbra    42            2077.2390649
04 Jun 2020 06:34:38.432    04 Jun 2020 06:34:47.866      9.4338969793    Earth           Penumbra    43            2077.9125405
04 Jun 2020 06:34:47.866    04 Jun 2020 07:09:07.033      2059.1667972    Earth           Umbra       43            2077.9125405
04 Jun 2020 07:09:07.033    04 Jun 2020 07:09:16.345      9.3118463061    Earth           Penumbra    43            2077.9125405
04 Jun 2020 08:08:27.254    04 Jun 2020 08:08:36.677      9.4230475486    Earth           Penumbra    44            2078.6038486
04 Jun 2020 08:08:36.677    04 Jun 2020 08:42:56.557      2059.8805447    Earth           Umbra       44            2078.6038486
04 Jun 2020 08:42:56.557    04 Jun 2020 08:43:05.858      9.3002563342    Earth           Penumbra    44            2078.6038486
04 Jun 2020 09:42:16.077    04 Jun 2020 09:42:25.490      9.4124282012    Earth           Penumbra    45            2079.3199057
04 Jun 2020 09:42:25.490    04 Jun 2020 10:16:46.108      2060.6186850    Earth           Umbra       45            2079.3199057
04 Jun 2020 10:16:46.108    04 Jun 2020 10:16:55.397      9.2887924053    Earth           Penumbra    45            2079.3199057
04 Jun 2020 11:16:04.900    04 Jun 2020 11:16:14.301      9.4018846052    Earth           Penumbra    46            2080.0481873
04 Jun 2020 11:16:14.301    04 Jun 2020 11:50:35.670      2061.3688385    Earth           Umbra       46            2080.0481873
04 Jun 2020 11:50:35.670    04 Jun 2020 11:50:44.948      9.2774642631    Earth           Penumbra    46            2080.0481873
04 Jun 2020 12:49:53.645    04 Jun 2020 12:50:03.036      9.3910172582    Earth           Penumbra    47            2080.7657990
04 Jun 2020 12:50:03.036    04 Jun 2020 13:24:25.145      2062.1088437    Earth           Umbra       47            2080.7657990
04 Jun 2020 13:24:25.145    04 Jun 2020 13:24:34.411      9.2659380985    Earth           Penumbra    47            2080.7657990
04 Jun 2020 14:23:42.266    04 Jun 2020 14:23:51.645      9.3797082896    Earth           Penumbra    48            2081.4684792
04 Jun 2020 14:23:51.645    04 Jun 2020 14:58:14.480      2062.8348261    Earth           Umbra       48            2081.4684792
04 Jun 2020 14:58:14.480    04 Jun 2020 14:58:23.734      9.2539448524    Earth           Penumbra    48            2081.4684792
04 Jun 2020 15:57:30.793    04 Jun 2020 15:57:40.161      9.3682717066    Earth           Penumbra    49            2072.9334197
04 Jun 2020 15:57:40.161    04 Jun 2020 16:32:03.726      2063.5651480    Earth           Umbra       49            2072.9334197
04 Jun 2020 17:31:19.277    04 Jun 2020 17:31:28.634      9.3570422614    Earth           Penumbra    50            2082.9027654
04 Jun 2020 17:31:28.634    04 Jun 2020 18:05:52.950      2064.3164173    Earth           Umbra       50            2082.9027654
04 Jun 2020 18:05:52.950    04 Jun 2020 18:06:02.179      9.2293058289    Earth           Penumbra    50            2082.9027654
04 Jun 2020 19:05:07.715    04 Jun 2020 19:05:17.061      9.3459938653    Earth           Penumbra    51            2083.6509759
04 Jun 2020 19:05:17.061    04 Jun 2020 19:39:42.149      2065.0878678    Earth           Umbra       51            2083.6509759
04 Jun 2020 19:39:42.149    04 Jun 2020 19:39:51.366      9.2171142460    Earth           Penumbra    51            2083.6509759
04 Jun 2020 20:38:56.081    04 Jun 2020 20:39:05.415      9.3347930233    Earth           Penumbra    52            2084.4071467
04 Jun 2020 20:39:05.415    04 Jun 2020 21:13:31.283      2065.8674744    Earth           Umbra       52            2084.4071467
04 Jun 2020 21:13:31.283    04 Jun 2020 21:13:40.488      9.2048792867    Earth           Penumbra    52            2084.4071467
04 Jun 2020 22:12:44.381    04 Jun 2020 22:12:53.704      9.3231574749    Earth           Penumbra    53            2085.1582051
04 Jun 2020 22:12:53.704    04 Jun 2020 22:47:20.347      2066.6426814    Earth           Umbra       53            2085.1582051
04 Jun 2020 22:47:20.347    04 Jun 2020 22:47:29.539      9.1923661530    Earth           Penumbra    53            2085.1582051
04 Jun 2020 23:46:32.652    04 Jun 2020 23:46:41.963      9.3111258815    Earth           Penumbra    54            2085.8985460
04 Jun 2020 23:46:41.963    05 Jun 2020 00:21:09.371      2067.4079298    Earth           Umbra       54            2085.8985460
05 Jun 2020 00:21:09.371    05 Jun 2020 00:21:18.550      9.1794902924    Earth           Penumbra    54            2085.8985460
05 Jun 2020 01:20:20.891    05 Jun 2020 01:20:30.190      9.2989776749    Earth           Penumbra    55            2086.6348831
05 Jun 2020 01:20:30.190    05 Jun 2020 01:54:58.359      2068.1694761    Earth           Umbra       55            2086.6348831
05 Jun 2020 01:54:58.359    05 Jun 2020 01:55:07.526      9.1664292966    Earth           Penumbra    55            2086.6348831
05 Jun 2020 02:54:09.040    05 Jun 2020 02:54:18.326      9.2868907610    Earth           Penumbra    56            2087.3793765
05 Jun 2020 02:54:18.326    05 Jun 2020 03:28:47.265      2068.9390068    Earth           Umbra       56            2087.3793765
05 Jun 2020 03:28:47.265    05 Jun 2020 03:28:56.419      9.1534789419    Earth           Penumbra    56            2087.3793765
05 Jun 2020 04:27:57.036    05 Jun 2020 04:28:06.311      9.2747724149    Earth           Penumbra    57            2088.1355149
05 Jun 2020 04:28:06.311    05 Jun 2020 05:02:36.031      2069.7199829    Earth           Umbra       57            2088.1355149
05 Jun 2020 05:02:36.031    05 Jun 2020 05:02:45.171      9.1407596134    Earth           Penumbra    57            2088.1355149
05 Jun 2020 06:01:44.877    05 Jun 2020 06:01:54.139      9.2625141959    Earth           Penumbra    58            2088.8996553
05 Jun 2020 06:01:54.139    05 Jun 2020 06:36:24.648      2070.5089921    Earth           Umbra       58            2088.8996553
05 Jun 2020 06:36:24.648    05 Jun 2020 06:36:33.776      9.1281490400    Earth           Penumbra    58            2088.8996553
05 Jun 2020 07:35:32.633    05 Jun 2020 07:35:41.884      9.2502848944    Earth           Penumbra    59            2080.5602080
05 Jun 2020 07:35:41.884    05 Jun 2020 08:10:13.194      2071.3099231    Earth           Umbra       59            2080.5602080
05 Jun 2020 09:09:20.388    05 Jun 2020 09:09:29.627      9.2383237090    Earth           Penumbra    60            2090.4721441
05 Jun 2020 09:09:29.627    05 Jun 2020 09:44:01.757      2072.1307134    Earth           Umbra       60            2090.4721441
05 Jun 2020 09:44:01.757    05 Jun 2020 09:44:10.860      9.1031070566    Earth           Penumbra    60            2090.4721441
05 Jun 2020 10:43:08.148    05 Jun 2020 10:43:17.374      9.2265281710    Earth           Penumbra    61            2091.2808349
05 Jun 2020 10:43:17.374    05 Jun 2020 11:17:50.338      2072.9634827    Earth           Umbra       61            2091.2808349
05 Jun 2020 11:17:50.338    05 Jun 2020 11:17:59.428      9.0908240061    Earth           Penumbra    61            2091.2808349
05 Jun 2020 12:16:55.838    05 Jun 2020 12:17:05.052      9.2145094648    Earth           Penumbra    62            2092.0788361
05 Jun 2020 12:17:05.052    05 Jun 2020 12:51:38.838      2073.7858718    Earth           Umbra       62            2092.0788361
05 Jun 2020 12:51:38.838    05 Jun 2020 12:51:47.917      9.0784548316    Earth           Penumbra    62            2092.0788361
05 Jun 2020 13:50:52.604    05 Jun 2020 14:25:27.193      2074.5883739    Earth           Umbra       63            2083.6540975
05 Jun 2020 14:25:27.193    05 Jun 2020 14:25:36.258      9.0657235589    Earth           Penumbra    63            2083.6540975
05 Jun 2020 15:24:30.866    05 Jun 2020 15:24:40.055      9.1895526624    Earth           Penumbra    64            2093.6281563
05 Jun 2020 15:24:40.055    05 Jun 2020 15:59:15.441      2075.3859034    Earth           Umbra       64            2093.6281563
05 Jun 2020 15:59:15.441    05 Jun 2020 15:59:24.494      9.0527002816    Earth           Penumbra    64            2093.6281563
05 Jun 2020 16:58:18.285    05 Jun 2020 16:58:27.462      9.1772325221    Earth           Penumbra    65            2085.3746851
05 Jun 2020 16:58:27.462    05 Jun 2020 17:33:03.659      2076.1974526    Earth           Umbra       65            2085.3746851
05 Jun 2020 18:32:05.663    05 Jun 2020 18:32:14.828      9.1651622672    Earth           Penumbra    66            2095.2181315
05 Jun 2020 18:32:14.828    05 Jun 2020 19:06:51.854      2077.0261970    Earth           Umbra       66            2095.2181315
05 Jun 2020 19:06:51.854    05 Jun 2020 19:07:00.881      9.0267722262    Earth           Penumbra    66            2095.2181315
05 Jun 2020 20:05:52.970    05 Jun 2020 20:06:02.123      9.1530401492    Earth           Penumbra    67            2096.0285633
05 Jun 2020 20:06:02.123    05 Jun 2020 20:40:39.984      2077.8616359    Earth           Umbra       67            2096.0285633
05 Jun 2020 20:40:39.984    05 Jun 2020 20:40:48.998      9.0138872503    Earth           Penumbra    67            2096.0285633
05 Jun 2020 21:39:40.206    05 Jun 2020 21:39:49.346      9.1405650484    Earth           Penumbra    68            2096.8318958
05 Jun 2020 21:39:49.346    05 Jun 2020 22:14:28.037      2078.6905001    Earth           Umbra       68            2096.8318958
05 Jun 2020 22:14:28.037    05 Jun 2020 22:14:37.038      9.0008306550    Earth           Penumbra    68            2096.8318958
05 Jun 2020 23:13:27.406    05 Jun 2020 23:13:36.534      9.1277360218    Earth           Penumbra    69            2097.6205696
05 Jun 2020 23:13:36.534    05 Jun 2020 23:48:16.039      2079.5053018    Earth           Umbra       69            2097.6205696
05 Jun 2020 23:48:16.039    05 Jun 2020 23:48:25.027      8.9875317179    Earth           Penumbra    69            2097.6205696
06 Jun 2020 00:47:14.578    06 Jun 2020 00:47:23.693      9.1148186708    Earth           Penumbra    70            2089.4255841
06 Jun 2020 00:47:23.693    06 Jun 2020 01:22:04.003      2080.3107654    Earth           Umbra       70            2089.4255841
06 Jun 2020 02:21:01.669    06 Jun 2020 02:21:10.771      9.1020201333    Earth           Penumbra    71            2099.1826738
06 Jun 2020 02:21:10.771    06 Jun 2020 02:55:51.891      2081.1198733    Earth           Umbra       71            2099.1826738
06 Jun 2020 02:55:51.891    06 Jun 2020 02:56:00.852      8.9607804548    Earth           Penumbra    71            2099.1826738
06 Jun 2020 03:54:48.614    06 Jun 2020 03:54:57.704      9.0892850887    Earth           Penumbra    72            2099.9759179
06 Jun 2020 03:54:57.704    06 Jun 2020 04:29:39.643      2081.9389080    Earth           Umbra       72            2099.9759179
06 Jun 2020 04:29:39.643    06 Jun 2020 04:29:48.590      8.9477248024    Earth           Penumbra    72            2099.9759179
06 Jun 2020 05:28:35.401    06 Jun 2020 05:28:44.478      9.0764981811    Earth           Penumbra    73            2100.7753996
06 Jun 2020 05:28:44.478    06 Jun 2020 06:03:27.242      2082.7640255    Earth           Umbra       73            2100.7753996
06 Jun 2020 06:03:27.242    06 Jun 2020 06:03:36.177      8.9348759735    Earth           Penumbra    73            2100.7753996
06 Jun 2020 07:02:22.095    06 Jun 2020 07:02:31.158      9.0637801099    Earth           Penumbra    74            2101.5816707
06 Jun 2020 07:02:31.158    06 Jun 2020 07:37:14.754      2083.5957566    Earth           Umbra       74            2101.5816707
06 Jun 2020 07:37:14.754    06 Jun 2020 07:37:23.676      8.9221340138    Earth           Penumbra    74            2101.5816707
06 Jun 2020 08:36:08.782    06 Jun 2020 08:36:17.833      9.0513622155    Earth           Penumbra    75            2102.4030044
06 Jun 2020 08:36:17.833    06 Jun 2020 09:11:02.275      2084.4420930    Earth           Umbra       75            2102.4030044
06 Jun 2020 09:11:02.275    06 Jun 2020 09:11:11.185      8.9095492149    Earth           Penumbra    75            2102.4030044
06 Jun 2020 10:09:55.479    06 Jun 2020 10:10:04.518      9.0391860344    Earth           Penumbra    76            2103.2359359
06 Jun 2020 10:10:04.518    06 Jun 2020 10:44:49.818      2085.2995890    Earth           Umbra       76            2103.2359359
06 Jun 2020 10:44:49.818    06 Jun 2020 10:44:58.715      8.8971608668    Earth           Penumbra    76            2103.2359359
06 Jun 2020 11:43:42.117    06 Jun 2020 11:43:51.144      9.0268847533    Earth           Penumbra    77            2104.0590304
06 Jun 2020 11:43:51.144    06 Jun 2020 12:18:37.291      2086.1473744    Earth           Umbra       77            2104.0590304
06 Jun 2020 12:18:37.291    06 Jun 2020 12:18:46.176      8.8847712614    Earth           Penumbra    77            2104.0590304
06 Jun 2020 13:17:28.630    06 Jun 2020 13:17:37.644      9.0142424335    Earth           Penumbra    78            2104.8575896
06 Jun 2020 13:17:37.644    06 Jun 2020 13:52:24.615      2086.9712286    Earth           Umbra       78            2104.8575896
06 Jun 2020 13:52:24.615    06 Jun 2020 13:52:33.487      8.8721185690    Earth           Penumbra    78            2104.8575896
06 Jun 2020 14:51:15.036    06 Jun 2020 14:51:24.037      9.0014665271    Earth           Penumbra    79            2105.6422681
06 Jun 2020 14:51:24.037    06 Jun 2020 15:26:11.819      2087.7815840    Earth           Umbra       79            2105.6422681
06 Jun 2020 15:26:11.819    06 Jun 2020 15:26:20.678      8.8592175627    Earth           Penumbra    79            2105.6422681
06 Jun 2020 16:25:01.395    06 Jun 2020 16:25:10.384      8.9889159892    Earth           Penumbra    80            2106.4337334
06 Jun 2020 16:25:10.384    06 Jun 2020 16:59:58.982      2088.5985090    Earth           Umbra       80            2106.4337334
06 Jun 2020 16:59:58.982    06 Jun 2020 17:00:07.828      8.8463083841    Earth           Penumbra    80            2106.4337334
06 Jun 2020 17:58:47.718    06 Jun 2020 17:58:56.695      8.9766741148    Earth           Penumbra    81            2107.2391486
06 Jun 2020 17:58:56.695    06 Jun 2020 18:33:46.124      2089.4289407    Earth           Umbra       81            2107.2391486
06 Jun 2020 18:33:46.124    06 Jun 2020 18:33:54.957      8.8335337350    Earth           Penumbra    81            2107.2391486
06 Jun 2020 19:32:42.939    06 Jun 2020 20:07:33.203      2090.2644591    Earth           Umbra       82            2090.2644591
06 Jun 2020 21:06:20.156    06 Jun 2020 21:06:29.108      8.9520121459    Earth           Penumbra    83            2108.8517744
06 Jun 2020 21:06:29.108    06 Jun 2020 21:41:20.200      2091.0917633    Earth           Umbra       83            2108.8517744
06 Jun 2020 21:41:20.200    06 Jun 2020 21:41:29.008      8.8079988956    Earth           Penumbra    83            2108.8517744
06 Jun 2020 22:40:06.296    06 Jun 2020 22:40:15.236      8.9392381255    Earth           Penumbra    84            2109.6362576
06 Jun 2020 22:40:15.236    06 Jun 2020 23:15:07.138      2091.9019703    Earth           Umbra       84            2109.6362576
06 Jun 2020 23:15:07.138    06 Jun 2020 23:15:15.933      8.7950491696    Earth           Penumbra    84            2109.6362576
07 Jun 2020 00:13:52.410    07 Jun 2020 00:14:01.337      8.9263908681    Earth           Penumbra    85            2101.6243716
07 Jun 2020 00:14:01.337    07 Jun 2020 00:48:54.035      2092.6979807    Earth           Umbra       85            2101.6243716
07 Jun 2020 01:47:38.454    07 Jun 2020 01:47:47.367      8.9137029718    Earth           Penumbra    86            2111.1759502
07 Jun 2020 01:47:47.367    07 Jun 2020 02:22:40.861      2093.4931141    Earth           Umbra       86            2111.1759502
07 Jun 2020 02:22:40.861    07 Jun 2020 02:22:49.630      8.7691330584    Earth           Penumbra    86            2111.1759502
07 Jun 2020 03:21:24.360    07 Jun 2020 03:21:33.261      8.9011596632    Earth           Penumbra    87            2111.9540810
07 Jun 2020 03:21:33.261    07 Jun 2020 03:56:27.558      2094.2964174    Earth           Umbra       87            2111.9540810
07 Jun 2020 03:56:27.558    07 Jun 2020 03:56:36.314      8.7565039401    Earth           Penumbra    87            2111.9540810
07 Jun 2020 04:55:10.107    07 Jun 2020 04:55:18.995      8.8886452722    Earth           Penumbra    88            2103.9933599
07 Jun 2020 04:55:18.995    07 Jun 2020 05:30:14.100      2095.1047146    Earth           Umbra       88            2103.9933599
07 Jun 2020 06:28:55.752    07 Jun 2020 06:29:04.628      8.8762371219    Earth           Penumbra    89            2113.5236759
07 Jun 2020 06:29:04.628    07 Jun 2020 07:04:00.544      2095.9154585    Earth           Umbra       89            2113.5236759
07 Jun 2020 07:04:00.544    07 Jun 2020 07:04:09.276      8.7319802726    Earth           Penumbra    89            2113.5236759
07 Jun 2020 08:02:41.385    07 Jun 2020 08:02:50.250      8.8641524082    Earth           Penumbra    90            2114.3195653
07 Jun 2020 08:02:50.250    07 Jun 2020 08:37:46.985      2096.7354104    Earth           Umbra       90            2114.3195653
07 Jun 2020 08:37:46.985    07 Jun 2020 08:37:55.705      8.7200024282    Earth           Penumbra    90            2114.3195653
07 Jun 2020 09:36:27.035    07 Jun 2020 09:36:35.888      8.8523719576    Earth           Penumbra    91            2106.4173387
07 Jun 2020 09:36:35.888    07 Jun 2020 10:11:33.453      2097.5649667    Earth           Umbra       91            2106.4173387
07 Jun 2020 11:10:12.636    07 Jun 2020 11:10:21.477      8.8405569317    Earth           Penumbra    92            2115.9232241
07 Jun 2020 11:10:21.477    07 Jun 2020 11:45:19.863      2098.3861304    Earth           Umbra       92            2115.9232241
07 Jun 2020 11:45:19.863    07 Jun 2020 11:45:28.559      8.6965367664    Earth           Penumbra    92            2115.9232241
07 Jun 2020 12:43:58.114    07 Jun 2020 12:44:06.943      8.8284524158    Earth           Penumbra    93            2116.6943886
07 Jun 2020 12:44:06.943    07 Jun 2020 13:19:06.124      2099.1812779    Earth           Umbra       93            2116.6943886
07 Jun 2020 13:19:06.124    07 Jun 2020 13:19:14.809      8.6846582475    Earth           Penumbra    93            2116.6943886
07 Jun 2020 14:17:52.297    07 Jun 2020 14:52:52.253      2099.9557407    Earth           Umbra       94            2108.6283129
07 Jun 2020 14:52:52.253    07 Jun 2020 14:53:00.925      8.6725722766    Earth           Penumbra    94            2108.6283129
07 Jun 2020 15:51:28.797    07 Jun 2020 15:51:37.601      8.8041842915    Earth           Penumbra    95            2118.1939681
07 Jun 2020 15:51:37.601    07 Jun 2020 16:26:38.331      2100.7293038    Earth           Umbra       95            2118.1939681
07 Jun 2020 16:26:38.331    07 Jun 2020 16:26:46.991      8.6604800192    Earth           Penumbra    95            2118.1939681
07 Jun 2020 17:25:22.876    07 Jun 2020 18:00:24.388      2101.5122497    Earth           Umbra       96            2110.1607732
07 Jun 2020 18:00:24.388    07 Jun 2020 18:00:33.037      8.6485235486    Earth           Penumbra    96            2110.1607732
07 Jun 2020 18:58:59.308    07 Jun 2020 18:59:08.089      8.7809575140    Earth           Penumbra    97            2119.7161910
07 Jun 2020 18:59:08.089    07 Jun 2020 19:34:10.387      2102.2985846    Earth           Umbra       97            2119.7161910
07 Jun 2020 19:34:10.387    07 Jun 2020 19:34:19.024      8.6366488016    Earth           Penumbra    97            2119.7161910
07 Jun 2020 20:32:44.456    07 Jun 2020 20:32:53.225      8.7692330126    Earth           Penumbra    98            2120.4694888
07 Jun 2020 20:32:53.225    07 Jun 2020 21:07:56.300      2103.0755104    Earth           Umbra       98            2120.4694888
07 Jun 2020 21:07:56.300    07 Jun 2020 21:08:04.925      8.6247454514    Earth           Penumbra    98            2120.4694888
07 Jun 2020 22:06:29.558    07 Jun 2020 22:06:38.315      8.7572422810    Earth           Penumbra    99            2121.2033635
07 Jun 2020 22:06:38.315    07 Jun 2020 22:41:42.148      2103.8333370    Earth           Umbra       99            2121.2033635
07 Jun 2020 22:41:42.148    07 Jun 2020 22:41:50.761      8.6127842660    Earth           Penumbra    99            2121.2033635
07 Jun 2020 23:40:14.634    07 Jun 2020 23:40:23.379      8.7451827130    Earth           Penumbra    100           2121.9191915
07 Jun 2020 23:40:23.379    08 Jun 2020 00:15:27.952      2104.5731866    Earth           Umbra       100           2121.9191915
08 Jun 2020 00:15:27.952    08 Jun 2020 00:15:36.553      8.6008221377    Earth           Penumbra    100           2121.9191915
08 Jun 2020 01:13:59.650    08 Jun 2020 01:14:08.383      8.7333023082    Earth           Penumbra    101           2114.0411639
08 Jun 2020 01:14:08.383    08 Jun 2020 01:49:13.691      2105.3078616    Earth           Umbra       101           2114.0411639
08 Jun 2020 02:47:44.539    08 Jun 2020 02:47:53.260      8.7216331274    Earth           Penumbra    102           2123.3477491
08 Jun 2020 02:47:53.260    08 Jun 2020 03:22:59.309      2106.0486957    Earth           Umbra       102           2123.3477491
08 Jun 2020 03:22:59.309    08 Jun 2020 03:23:07.887      8.5774202831    Earth           Penumbra    102           2123.3477491
08 Jun 2020 04:21:29.269    08 Jun 2020 04:21:37.979      8.7100626435    Earth           Penumbra    103           2124.0702979
08 Jun 2020 04:21:37.979    08 Jun 2020 04:56:44.773      2106.7940736    Earth           Umbra       103           2124.0702979
08 Jun 2020 04:56:44.773    08 Jun 2020 04:56:53.339      8.5661616060    Earth           Penumbra    103           2124.0702979
08 Jun 2020 05:55:22.589    08 Jun 2020 06:30:30.128      2107.5390237    Earth           Umbra       104           2116.0941797
08 Jun 2020 06:30:30.128    08 Jun 2020 06:30:38.683      8.5551559576    Earth           Penumbra    104           2116.0941797
08 Jun 2020 07:28:58.494    08 Jun 2020 07:29:07.181      8.6875408888    Earth           Penumbra    105           2125.5200118
08 Jun 2020 07:29:07.181    08 Jun 2020 08:04:15.470      2108.2880915    Earth           Umbra       105           2125.5200118
08 Jun 2020 08:04:15.470    08 Jun 2020 08:04:24.014      8.5443794494    Earth           Penumbra    105           2125.5200118
08 Jun 2020 09:02:51.796    08 Jun 2020 09:38:00.841      2109.0445332    Earth           Umbra       106           2117.5783672
08 Jun 2020 09:38:00.841    08 Jun 2020 09:38:09.374      8.5338339675    Earth           Penumbra    106           2117.5783672
08 Jun 2020 10:36:27.707    08 Jun 2020 10:36:36.373      8.6661088862    Earth           Penumbra    107           2126.9836920
08 Jun 2020 10:36:36.373    08 Jun 2020 11:11:46.167      2109.7941881    Earth           Umbra       107           2126.9836920
08 Jun 2020 11:11:46.167    08 Jun 2020 11:11:54.690      8.5233950405    Earth           Penumbra    107           2126.9836920
08 Jun 2020 12:10:12.177    08 Jun 2020 12:10:20.832      8.6551786750    Earth           Penumbra    108           2127.6855899
08 Jun 2020 12:10:20.832    08 Jun 2020 12:45:31.350      2110.5175607    Earth           Umbra       108           2127.6855899
08 Jun 2020 12:45:31.350    08 Jun 2020 12:45:39.862      8.5128505016    Earth           Penumbra    108           2127.6855899
08 Jun 2020 13:43:56.530    08 Jun 2020 13:44:05.174      8.6441038758    Earth           Penumbra    109           2128.3609577
08 Jun 2020 13:44:05.174    08 Jun 2020 14:19:16.389      2111.2147164    Earth           Umbra       109           2128.3609577
08 Jun 2020 14:19:16.389    08 Jun 2020 14:19:24.891      8.5021374864    Earth           Penumbra    109           2128.3609577
08 Jun 2020 15:17:40.829    08 Jun 2020 15:17:49.462      8.6332214414    Earth           Penumbra    110           2129.0284889
08 Jun 2020 15:17:49.462    08 Jun 2020 15:53:01.366      2111.9038512    Earth           Umbra       110           2129.0284889
08 Jun 2020 15:53:01.366    08 Jun 2020 15:53:09.857      8.4914162988    Earth           Penumbra    110           2129.0284889
08 Jun 2020 16:51:25.103    08 Jun 2020 16:51:33.726      8.6227070773    Earth           Penumbra    111           2129.7015154
08 Jun 2020 16:51:33.726    08 Jun 2020 17:26:46.324      2112.5979753    Earth           Umbra       111           2129.7015154
08 Jun 2020 17:26:46.324    08 Jun 2020 17:26:54.804      8.4808330983    Earth           Penumbra    111           2129.7015154
08 Jun 2020 18:25:09.322    08 Jun 2020 18:25:17.934      8.6124004796    Earth           Penumbra    112           2130.3764932
08 Jun 2020 18:25:17.934    08 Jun 2020 19:00:31.228      2113.2937375    Earth           Umbra       112           2130.3764932
08 Jun 2020 19:00:31.228    08 Jun 2020 19:00:39.698      8.4703551955    Earth           Penumbra    112           2130.3764932
08 Jun 2020 19:59:02.066    08 Jun 2020 20:34:16.046      2113.9791923    Earth           Umbra       113           2122.4390822
08 Jun 2020 20:34:16.046    08 Jun 2020 20:34:24.505      8.4598898655    Earth           Penumbra    113           2122.4390822
08 Jun 2020 21:32:37.556    08 Jun 2020 21:32:46.147      8.5913836956    Earth           Penumbra    114           2131.6851602
08 Jun 2020 21:32:46.147    08 Jun 2020 22:08:00.792      2114.6443513    Earth           Umbra       114           2131.6851602
08 Jun 2020 22:08:00.792    08 Jun 2020 22:08:09.241      8.4494251641    Earth           Penumbra    114           2131.6851602
08 Jun 2020 23:06:21.623    08 Jun 2020 23:06:30.203      8.5806955118    Earth           Penumbra    115           2132.3085739
08 Jun 2020 23:06:30.203    08 Jun 2020 23:41:45.492      2115.2888610    Earth           Umbra       115           2132.3085739
08 Jun 2020 23:41:45.492    08 Jun 2020 23:41:53.931      8.4390173550    Earth           Penumbra    115           2132.3085739
09 Jun 2020 00:40:05.638    09 Jun 2020 00:40:14.209      8.5701883771    Earth           Penumbra    116           2132.9233415
09 Jun 2020 00:40:14.209    09 Jun 2020 01:15:30.133      2115.9243949    Earth           Umbra       116           2132.9233415
09 Jun 2020 01:15:30.133    09 Jun 2020 01:15:38.562      8.4287582198    Earth           Penumbra    116           2132.9233415
09 Jun 2020 02:13:49.537    09 Jun 2020 02:13:58.097      8.5599374142    Earth           Penumbra    117           2133.5425571
09 Jun 2020 02:13:58.097    09 Jun 2020 02:49:14.661      2116.5638651    Earth           Umbra       117           2133.5425571
09 Jun 2020 02:49:14.661    09 Jun 2020 02:49:23.080      8.4187546279    Earth           Penumbra    117           2133.5425571
09 Jun 2020 03:47:41.830    09 Jun 2020 04:22:59.038      2117.2077424    Earth           Umbra       118           2125.6168165
09 Jun 2020 04:22:59.038    09 Jun 2020 04:23:07.447      8.4090741584    Earth           Penumbra    118           2125.6168165
09 Jun 2020 05:21:16.908    09 Jun 2020 05:21:25.448      8.5399330594    Earth           Penumbra    119           2126.3894511
09 Jun 2020 05:21:25.448    09 Jun 2020 05:56:43.297      2117.8495181    Earth           Umbra       119           2126.3894511
09 Jun 2020 06:55:00.512    09 Jun 2020 06:55:09.042      8.5303626023    Earth           Penumbra    120           2135.4118634
09 Jun 2020 06:55:09.042    09 Jun 2020 07:30:27.533      2118.4909169    Earth           Umbra       120           2135.4118634
09 Jun 2020 07:30:27.533    09 Jun 2020 07:30:35.923      8.3905838896    Earth           Penumbra    120           2135.4118634
09 Jun 2020 08:28:52.662    09 Jun 2020 09:04:11.799      2119.1368634    Earth           Umbra       121           2127.5185843
09 Jun 2020 09:04:11.799    09 Jun 2020 09:04:20.181      8.3817209699    Earth           Penumbra    121           2127.5185843
09 Jun 2020 10:02:27.745    09 Jun 2020 10:02:36.257      8.5121181328    Earth           Penumbra    122           2136.6626409
09 Jun 2020 10:02:36.257    09 Jun 2020 10:37:56.035      2119.7775213    Earth           Umbra       122           2136.6626409
09 Jun 2020 10:37:56.035    09 Jun 2020 10:38:04.408      8.3730013808    Earth           Penumbra    122           2136.6626409
09 Jun 2020 11:36:11.237    09 Jun 2020 11:36:19.740      8.5028654546    Earth           Penumbra    123           2137.2602242
09 Jun 2020 11:36:19.740    09 Jun 2020 12:11:40.133      2120.3931279    Earth           Umbra       123           2137.2602242
09 Jun 2020 12:11:40.133    09 Jun 2020 12:11:48.498      8.3642308717    Earth           Penumbra    123           2137.2602242
09 Jun 2020 13:09:54.609    09 Jun 2020 13:10:03.102      8.4934622166    Earth           Penumbra    124           2129.4722170
09 Jun 2020 13:10:03.102    09 Jun 2020 13:45:24.081      2120.9787548    Earth           Umbra       124           2129.4722170
09 Jun 2020 14:43:37.921    09 Jun 2020 14:43:46.405      8.4842202254    Earth           Penumbra    125           2138.3804672
09 Jun 2020 14:43:46.405    09 Jun 2020 15:19:07.955      2121.5498359    Earth           Umbra       125           2138.3804672
09 Jun 2020 15:19:07.955    09 Jun 2020 15:19:16.301      8.3464110503    Earth           Penumbra    125           2138.3804672
09 Jun 2020 16:17:21.213    09 Jun 2020 16:17:29.688      8.4753507050    Earth           Penumbra    126           2138.9343212
09 Jun 2020 16:17:29.688    09 Jun 2020 16:52:51.809      2122.1213394    Earth           Umbra       126           2138.9343212
09 Jun 2020 16:52:51.809    09 Jun 2020 16:53:00.147      8.3376311115    Earth           Penumbra    126           2138.9343212
09 Jun 2020 17:51:12.924    09 Jun 2020 18:26:35.617      2122.6926550    Earth           Umbra       127           2131.0216319
09 Jun 2020 18:26:35.617    09 Jun 2020 18:26:43.946      8.3289769012    Earth           Penumbra    127           2131.0216319
09 Jun 2020 19:24:47.627    09 Jun 2020 19:24:56.085      8.4581412957    Earth           Penumbra    128           2140.0314336
09 Jun 2020 19:24:56.085    09 Jun 2020 20:00:19.338      2123.2529237    Earth           Umbra       128           2140.0314336
09 Jun 2020 20:00:19.338    09 Jun 2020 20:00:27.658      8.3203685819    Earth           Penumbra    128           2140.0314336
09 Jun 2020 20:58:30.741    09 Jun 2020 20:58:39.190      8.4493553848    Earth           Penumbra    129           2140.5533570
09 Jun 2020 20:58:39.190    09 Jun 2020 21:34:02.983      2123.7922023    Earth           Umbra       129           2140.5533570
09 Jun 2020 21:34:02.983    09 Jun 2020 21:34:11.294      8.3117992384    Earth           Penumbra    129           2140.5533570
09 Jun 2020 22:32:22.271    09 Jun 2020 23:07:46.580      2124.3090982    Earth           Umbra       130           2132.6124312
09 Jun 2020 23:07:46.580    09 Jun 2020 23:07:54.883      8.3033329924    Earth           Penumbra    130           2132.6124312
10 Jun 2020 00:05:56.876    10 Jun 2020 00:06:05.308      8.4318124806    Earth           Penumbra    131           2141.5407124
10 Jun 2020 00:06:05.308    10 Jun 2020 00:41:30.122      2124.8138603    Earth           Umbra       131           2141.5407124
10 Jun 2020 00:41:30.122    10 Jun 2020 00:41:38.417      8.2950396230    Earth           Penumbra    131           2141.5407124
10 Jun 2020 01:39:39.817    10 Jun 2020 01:39:48.240      8.4234131849    Earth           Penumbra    132           2133.7435914
10 Jun 2020 01:39:48.240    10 Jun 2020 02:15:13.560      2125.3201782    Earth           Umbra       132           2133.7435914
10 Jun 2020 03:13:22.606    10 Jun 2020 03:13:31.021      8.4152298281    Earth           Penumbra    133           2142.5252898
10 Jun 2020 03:13:31.021    10 Jun 2020 03:48:56.852      2125.8307842    Earth           Umbra       133           2142.5252898
10 Jun 2020 03:48:56.852    10 Jun 2020 03:49:05.131      8.2792757777    Earth           Penumbra    133           2142.5252898
10 Jun 2020 04:47:05.274    10 Jun 2020 04:47:13.681      8.4072476369    Earth           Penumbra    134           2143.0176956
10 Jun 2020 04:47:13.681    10 Jun 2020 05:22:40.019      2126.3385606    Earth           Umbra       134           2143.0176956
10 Jun 2020 05:22:40.019    10 Jun 2020 05:22:48.291      8.2718873397    Earth           Penumbra    134           2143.0176956
10 Jun 2020 06:20:47.911    10 Jun 2020 06:20:56.310      8.3996159141    Earth           Penumbra    135           2135.2418149
10 Jun 2020 06:20:56.310    10 Jun 2020 06:56:23.153      2126.8421990    Earth           Umbra       135           2135.2418149
10 Jun 2020 07:54:30.577    10 Jun 2020 07:54:38.969      8.3924003527    Earth           Penumbra    136           2143.9974526
10 Jun 2020 07:54:38.969    10 Jun 2020 08:30:06.316      2127.3470639    Earth           Umbra       136           2143.9974526
10 Jun 2020 08:30:06.316    10 Jun 2020 08:30:14.574      8.2579883630    Earth           Penumbra    136           2143.9974526
10 Jun 2020 09:28:21.615    10 Jun 2020 10:03:49.462      2127.8476665    Earth           Umbra       137           2136.0990117
10 Jun 2020 10:03:49.462    10 Jun 2020 10:03:57.714      8.2513451809    Earth           Penumbra    137           2136.0990117
10 Jun 2020 11:01:55.778    10 Jun 2020 11:02:04.157      8.3781911409    Earth           Penumbra    138           2144.9483926
10 Jun 2020 11:02:04.157    10 Jun 2020 11:37:32.482      2128.3255032    Earth           Umbra       138           2144.9483926
10 Jun 2020 11:37:32.482    10 Jun 2020 11:37:40.727      8.2446982269    Earth           Penumbra    138           2144.9483926
10 Jun 2020 12:35:38.202    10 Jun 2020 12:35:46.573      8.3708589664    Earth           Penumbra    139           2145.3801425
10 Jun 2020 12:35:46.573    10 Jun 2020 13:11:15.344      2128.7713373    Earth           Umbra       139           2145.3801425
10 Jun 2020 13:11:15.344    10 Jun 2020 13:11:23.582      8.2379462896    Earth           Penumbra    139           2145.3801425
10 Jun 2020 14:09:20.562    10 Jun 2020 14:09:28.925      8.3636515774    Earth           Penumbra    140           2145.7917099
10 Jun 2020 14:09:28.925    10 Jun 2020 14:44:58.122      2129.1968794    Earth           Umbra       140           2145.7917099
10 Jun 2020 14:44:58.122    10 Jun 2020 14:45:06.353      8.2311789505    Earth           Penumbra    140           2145.7917099
10 Jun 2020 15:43:02.904    10 Jun 2020 15:43:11.261      8.3568081725    Earth           Penumbra    141           2146.1994916
10 Jun 2020 15:43:11.261    10 Jun 2020 16:18:40.879      2129.6181404    Earth           Umbra       141           2146.1994916
10 Jun 2020 16:18:40.879    10 Jun 2020 16:18:49.103      8.2245429978    Earth           Penumbra    141           2146.1994916
10 Jun 2020 17:16:45.207    10 Jun 2020 17:16:53.557      8.3502816036    Earth           Penumbra    142           2138.3875366
10 Jun 2020 17:16:53.557    10 Jun 2020 17:52:23.594      2130.0372550    Earth           Umbra       142           2138.3875366
10 Jun 2020 18:50:27.438    10 Jun 2020 18:50:35.782      8.3438216709    Earth           Penumbra    143           2147.0000747
10 Jun 2020 18:50:35.782    10 Jun 2020 19:26:06.227      2130.4446217    Earth           Umbra       143           2147.0000747
10 Jun 2020 19:26:06.227    10 Jun 2020 19:26:14.438      8.2116313046    Earth           Penumbra    143           2147.0000747
10 Jun 2020 20:24:09.611    10 Jun 2020 20:24:17.948      8.3372372668    Earth           Penumbra    144           2147.3730327
10 Jun 2020 20:24:17.948    10 Jun 2020 20:59:48.779      2130.8305169    Earth           Umbra       144           2147.3730327
10 Jun 2020 20:59:48.779    10 Jun 2020 20:59:56.984      8.2052785554    Earth           Penumbra    144           2147.3730327
10 Jun 2020 21:57:51.757    10 Jun 2020 21:58:00.087      8.3305789973    Earth           Penumbra    145           2147.7225889
10 Jun 2020 21:58:00.087    10 Jun 2020 22:33:31.280      2131.1929483    Earth           Umbra       145           2147.7225889
10 Jun 2020 22:33:31.280    10 Jun 2020 22:33:39.479      8.1990615930    Earth           Penumbra    145           2147.7225889
10 Jun 2020 23:31:42.191    11 Jun 2020 00:07:13.732      2131.5407490    Earth           Umbra       146           2131.5407490
11 Jun 2020 01:05:15.883    11 Jun 2020 01:05:24.201      8.3178697270    Earth           Penumbra    147           2148.3928063
11 Jun 2020 01:05:24.201    11 Jun 2020 01:40:56.088      2131.8876558    Earth           Umbra       147           2148.3928063
11 Jun 2020 01:40:56.088    11 Jun 2020 01:41:04.276      8.1872808281    Earth           Penumbra    147           2148.3928063
11 Jun 2020 02:38:57.753    11 Jun 2020 02:39:06.065      8.3119299961    Earth           Penumbra    148           2148.7322624
11 Jun 2020 02:39:06.065    11 Jun 2020 03:14:38.304      2132.2385009    Earth           Umbra       148           2148.7322624
11 Jun 2020 03:14:38.304    11 Jun 2020 03:14:46.485      8.1818314386    Earth           Penumbra    148           2148.7322624
11 Jun 2020 04:12:39.497    11 Jun 2020 04:12:47.803      8.3062216057    Earth           Penumbra    149           2149.0693551
11 Jun 2020 04:12:47.803    11 Jun 2020 04:48:20.390      2132.5864038    Earth           Umbra       149           2149.0693551
11 Jun 2020 04:48:20.390    11 Jun 2020 04:48:28.566      8.1767296884    Earth           Penumbra    149           2149.0693551
11 Jun 2020 05:46:21.203    11 Jun 2020 05:46:29.504      8.3008639980    Earth           Penumbra    150           2149.3999957
11 Jun 2020 05:46:29.504    11 Jun 2020 06:22:02.431      2132.9271665    Earth           Umbra       150           2149.3999957
11 Jun 2020 06:22:02.431    11 Jun 2020 06:22:10.603      8.1719652051    Earth           Penumbra    150           2149.3999957
11 Jun 2020 07:20:02.940    11 Jun 2020 07:20:11.236      8.2959436113    Earth           Penumbra    151           2141.5613840
11 Jun 2020 07:20:11.236    11 Jun 2020 07:55:44.501      2133.2654404    Earth           Umbra       151           2141.5613840
11 Jun 2020 08:53:52.967    11 Jun 2020 09:29:26.566      2133.5997096    Earth           Umbra       152           2141.7629360
11 Jun 2020 09:29:26.566    11 Jun 2020 09:29:34.730      8.1632264424    Earth           Penumbra    152           2141.7629360
11 Jun 2020 10:27:26.317    11 Jun 2020 10:27:34.603      8.2864913391    Earth           Penumbra    153           2150.3595513
11 Jun 2020 10:27:34.603    11 Jun 2020 11:03:08.517      2133.9140680    Earth           Umbra       153           2150.3595513
11 Jun 2020 11:03:08.517    11 Jun 2020 11:03:16.676      8.1589919049    Earth           Penumbra    153           2150.3595513
11 Jun 2020 12:01:07.830    11 Jun 2020 12:01:16.112      8.2815593225    Earth           Penumbra    154           2150.6322316
11 Jun 2020 12:01:16.112    11 Jun 2020 12:36:50.308      2134.1959929    Earth           Umbra       154           2150.6322316
11 Jun 2020 12:36:50.308    11 Jun 2020 12:36:58.462      8.1546794157    Earth           Penumbra    154           2150.6322316
11 Jun 2020 13:34:49.272    11 Jun 2020 13:34:57.549      8.2767131156    Earth           Penumbra    155           2150.8798515
11 Jun 2020 13:34:57.549    11 Jun 2020 14:10:32.002      2134.4527910    Earth           Umbra       155           2150.8798515
11 Jun 2020 14:10:32.002    11 Jun 2020 14:10:40.152      8.1503474386    Earth           Penumbra    155           2150.8798515
11 Jun 2020 15:08:30.699    11 Jun 2020 15:08:38.971      8.2722126623    Earth           Penumbra    156           2142.9727140
11 Jun 2020 15:08:38.971    11 Jun 2020 15:44:13.672      2134.7005013    Earth           Umbra       156           2142.9727140
11 Jun 2020 16:42:12.096    11 Jun 2020 16:42:20.364      8.2680620486    Earth           Penumbra    157           2151.3540314
11 Jun 2020 16:42:20.364    11 Jun 2020 17:17:55.308      2134.9438832    Earth           Umbra       157           2151.3540314
11 Jun 2020 17:17:55.308    11 Jun 2020 17:18:03.450      8.1420861301    Earth           Penumbra    157           2151.3540314
11 Jun 2020 18:16:01.689    11 Jun 2020 18:51:36.864      2135.1747526    Earth           Umbra       158           2143.3128905
11 Jun 2020 18:51:36.864    11 Jun 2020 18:51:45.002      8.1381379394    Earth           Penumbra    158           2143.3128905
11 Jun 2020 19:49:42.953    11 Jun 2020 20:25:18.337      2135.3836383    Earth           Umbra       159           2143.5179145
11 Jun 2020 20:25:18.337    11 Jun 2020 20:25:26.471      8.1342761870    Earth           Penumbra    159           2143.5179145
11 Jun 2020 21:23:15.932    11 Jun 2020 21:23:24.188      8.2558189170    Earth           Penumbra    160           2151.9546992
11 Jun 2020 21:23:24.188    11 Jun 2020 21:58:59.757      2135.5683074    Earth           Umbra       160           2151.9546992
11 Jun 2020 21:58:59.757    11 Jun 2020 21:59:07.887      8.1305728527    Earth           Penumbra    160           2151.9546992
11 Jun 2020 22:56:57.142    11 Jun 2020 22:57:05.393      8.2517987466    Earth           Penumbra    161           2152.1153115
11 Jun 2020 22:57:05.393    11 Jun 2020 23:32:41.130      2135.7364159    Earth           Umbra       161           2152.1153115
11 Jun 2020 23:32:41.130    11 Jun 2020 23:32:49.257      8.1270967727    Earth           Penumbra    161           2152.1153115
12 Jun 2020 00:30:38.268    12 Jun 2020 00:30:46.516      8.2480840967    Earth           Penumbra    162           2152.2731643
12 Jun 2020 00:30:46.516    12 Jun 2020 01:06:22.417      2135.9011961    Earth           Umbra       162           2152.2731643
12 Jun 2020 01:06:22.417    12 Jun 2020 01:06:30.541      8.1238840939    Earth           Penumbra    162           2152.2731643
12 Jun 2020 02:04:19.255    12 Jun 2020 02:04:27.500      8.2446755958    Earth           Penumbra    163           2144.3138519
12 Jun 2020 02:04:27.500    12 Jun 2020 02:40:03.569      2136.0691763    Earth           Umbra       163           2144.3138519
12 Jun 2020 03:38:00.113    12 Jun 2020 03:38:08.355      8.2415282959    Earth           Penumbra    164           2144.4758975
12 Jun 2020 03:38:08.355    12 Jun 2020 04:13:44.589      2136.2343692    Earth           Umbra       164           2144.4758975
12 Jun 2020 05:11:40.925    12 Jun 2020 05:11:49.164      8.2387380651    Earth           Penumbra    165           2152.7450817
12 Jun 2020 05:11:49.164    12 Jun 2020 05:47:25.554      2136.3900966    Earth           Umbra       165           2152.7450817
12 Jun 2020 05:47:25.554    12 Jun 2020 05:47:33.670      8.1162470276    Earth           Penumbra    165           2152.7450817
12 Jun 2020 06:45:21.768    12 Jun 2020 06:45:30.005      8.2364010857    Earth           Penumbra    166           2152.8901297
12 Jun 2020 06:45:30.005    12 Jun 2020 07:21:06.544      2136.5393420    Earth           Umbra       166           2152.8901297
12 Jun 2020 07:21:06.544    12 Jun 2020 07:21:14.659      8.1143865595    Earth           Penumbra    166           2152.8901297
12 Jun 2020 08:19:02.623    12 Jun 2020 08:19:10.857      8.2343554823    Earth           Penumbra    167           2153.0309554
12 Jun 2020 08:19:10.857    12 Jun 2020 08:54:47.541      2136.6838450    Earth           Umbra       167           2153.0309554
