GMAT/Pass Analysis v3/passes.txt

Target: FINCH

Observer: NapaneeImaging
Start Time (UTC)            Stop Time (UTC)               Duration (s)         
01 Jun 2024 03:22:05.661    01 Jun 2024 03:22:38.079      32.418058044    
02 Jun 2024 03:12:52.591    02 Jun 2024 03:14:13.102      80.510552670    
02 Jun 2024 16:20:20.569    02 Jun 2024 16:21:16.740      56.171390531    
03 Jun 2024 03:04:01.410    03 Jun 2024 03:05:25.947      84.536556154    
03 Jun 2024 16:11:14.575    03 Jun 2024 16:12:47.279      92.704516277    
04 Jun 2024 02:55:26.433    04 Jun 2024 02:56:22.329      55.895823415    
04 Jun 2024 16:02:23.768    04 Jun 2024 16:03:59.807      96.038870676    
05 Jun 2024 15:53:46.295    05 Jun 2024 15:54:56.187      69.892182131    
12 Jun 2024 03:18:39.968    12 Jun 2024 03:19:44.520      64.551929652    
13 Jun 2024 03:09:30.399    13 Jun 2024 03:11:00.449      90.050004423    
13 Jun 2024 16:16:58.623    13 Jun 2024 16:18:13.935      75.311739463    
14 Jun 2024 03:00:36.472    14 Jun 2024 03:02:00.677      84.205733857    
14 Jun 2024 16:07:51.393    14 Jun 2024 16:09:28.715      97.322138585    
15 Jun 2024 02:52:04.401    15 Jun 2024 02:52:39.012      34.610806976    
15 Jun 2024 15:58:57.045    15 Jun 2024 16:00:27.847      90.801372682    
16 Jun 2024 15:50:21.986    16 Jun 2024 15:51:04.928      42.941738327    
22 Jun 2024 03:23:27.202    22 Jun 2024 03:23:55.695      28.492483066    
23 Jun 2024 03:13:54.164    23 Jun 2024 03:15:21.019      86.854891561    
23 Jun 2024 16:21:38.398    23 Jun 2024 16:22:16.490      38.092016405    
24 Jun 2024 03:04:46.164    24 Jun 2024 03:06:21.307      95.143150329    
24 Jun 2024 16:12:10.298    24 Jun 2024 16:13:38.208      87.909959326    
25 Jun 2024 02:55:53.023    25 Jun 2024 02:57:06.745      73.721852317    
25 Jun 2024 16:03:02.364    25 Jun 2024 16:04:36.938      94.573979708    
26 Jun 2024 15:54:08.421    26 Jun 2024 15:55:18.853      70.431529311    
03 Jul 2024 03:17:12.654    03 Jul 2024 03:18:30.720      78.065959713    
04 Jul 2024 03:07:51.789    04 Jul 2024 03:09:29.604      97.815241548    
04 Jul 2024 16:15:17.823    04 Jul 2024 16:16:30.512      72.689432348    
05 Jul 2024 02:58:45.814    05 Jul 2024 03:00:13.555      87.740831170    
05 Jul 2024 16:05:56.817    05 Jul 2024 16:07:27.636      90.819061745    
06 Jul 2024 02:50:06.363    06 Jul 2024 02:50:30.933      24.570291443    
06 Jul 2024 15:56:50.124    06 Jul 2024 15:58:07.514      77.389354992    
13 Jul 2024 03:19:20.513    13 Jul 2024 03:20:26.849      66.335993854    
14 Jul 2024 03:09:47.130    14 Jul 2024 03:11:22.805      95.674845041    
14 Jul 2024 16:17:07.903    14 Jul 2024 16:18:04.744      56.840614986    
15 Jul 2024 03:00:30.382    15 Jul 2024 03:02:01.973      91.590447561    
15 Jul 2024 16:07:33.953    15 Jul 2024 16:08:58.995      85.042424337    
16 Jul 2024 02:51:33.618    16 Jul 2024 02:52:20.996      47.377893480    
16 Jul 2024 15:58:16.490    16 Jul 2024 15:59:33.715      77.225500520    
23 Jul 2024 03:20:08.454    23 Jul 2024 03:21:04.392      55.938083294    
24 Jul 2024 03:10:23.595    24 Jul 2024 03:11:55.095      91.500164091    
24 Jul 2024 16:17:32.355    24 Jul 2024 16:18:20.353      47.998832515    
25 Jul 2024 03:00:57.501    25 Jul 2024 03:02:26.773      89.271709824    
25 Jul 2024 16:07:47.488    25 Jul 2024 16:09:08.775      81.287344813    
26 Jul 2024 02:51:52.018    26 Jul 2024 02:52:37.579      45.560638199    
26 Jul 2024 15:58:21.094    26 Jul 2024 15:59:35.585      74.491590459    
02 Aug 2024 03:19:26.673    02 Aug 2024 03:20:19.752      53.079224518    
03 Aug 2024 03:09:33.523    03 Aug 2024 03:11:01.191      87.668103492    
03 Aug 2024 16:16:25.024    03 Aug 2024 16:17:17.685      52.661326714    
04 Aug 2024 03:00:00.039    04 Aug 2024 03:01:22.686      82.646885316    
04 Aug 2024 16:06:33.891    04 Aug 2024 16:07:55.242      81.351038895    
05 Aug 2024 02:50:55.063    05 Aug 2024 02:51:15.392      20.328419900    
05 Aug 2024 15:57:01.057    05 Aug 2024 15:58:11.326      70.268683182    
12 Aug 2024 03:17:10.528    12 Aug 2024 03:18:10.589      60.060118872    
13 Aug 2024 03:07:13.388    13 Aug 2024 03:08:38.353      84.964716551    
13 Aug 2024 16:13:47.822    13 Aug 2024 16:14:54.542      66.719853482    
14 Aug 2024 02:57:35.514    14 Aug 2024 02:58:46.618      71.104381979    
14 Aug 2024 16:03:53.932    14 Aug 2024 16:05:17.737      83.805275545    
15 Aug 2024 15:54:17.972    15 Aug 2024 15:55:19.827      61.854619801    
22 Aug 2024 03:13:22.540    22 Aug 2024 03:14:34.105      71.564666333    
22 Aug 2024 16:20:08.730    22 Aug 2024 16:20:30.532      21.801469708    
23 Aug 2024 03:03:24.396    23 Aug 2024 03:04:45.739      81.342815305    
23 Aug 2024 16:09:46.418    23 Aug 2024 16:11:08.377      81.958685594    
24 Aug 2024 02:53:47.869    24 Aug 2024 02:54:35.593      47.723312862    
24 Aug 2024 15:59:51.437    24 Aug 2024 16:01:15.683      84.245736909    
25 Aug 2024 15:50:19.487    25 Aug 2024 15:50:56.743      37.255341641    
31 Aug 2024 03:18:27.287    31 Aug 2024 03:19:11.759      44.471619325    
01 Sep 2024 03:08:07.625    01 Sep 2024 03:09:28.499      80.874494067    
01 Sep 2024 16:14:35.934    01 Sep 2024 16:15:47.242      71.308342915    
02 Sep 2024 02:58:11.052    02 Sep 2024 02:59:22.043      70.990932710    
02 Sep 2024 16:04:24.829    02 Sep 2024 16:05:56.723      91.894596547    
03 Sep 2024 15:54:30.976    03 Sep 2024 15:55:45.642      74.666279275    
10 Sep 2024 03:11:41.888    10 Sep 2024 03:12:58.532      76.644187665    
10 Sep 2024 16:18:20.096    10 Sep 2024 16:19:14.130      54.034616263    
11 Sep 2024 03:01:29.934    11 Sep 2024 03:02:51.085      81.151362159    
11 Sep 2024 16:07:52.427    11 Sep 2024 16:09:25.291      92.864668672    
12 Sep 2024 02:51:44.042    12 Sep 2024 02:52:17.467      33.424648026    
12 Sep 2024 15:57:44.318    12 Sep 2024 15:59:13.410      89.092052530    
13 Sep 2024 15:48:04.712    13 Sep 2024 15:48:29.519      24.807287869    
19 Sep 2024 03:14:02.566    19 Sep 2024 03:15:15.629      73.063270468    
19 Sep 2024 16:20:54.137    19 Sep 2024 16:21:24.459      30.321511882    
20 Sep 2024 03:03:37.296    20 Sep 2024 03:05:04.427      87.131038285    
20 Sep 2024 16:10:07.375    20 Sep 2024 16:11:38.047      90.672095446    
21 Sep 2024 02:53:33.457    21 Sep 2024 02:54:31.560      58.103317476    
21 Sep 2024 15:59:46.909    21 Sep 2024 16:01:21.554      94.645725447    
22 Sep 2024 15:49:46.981    22 Sep 2024 15:50:40.706      53.725209623    
28 Sep 2024 03:15:01.355    28 Sep 2024 03:16:14.905      73.550217762    
29 Sep 2024 03:04:24.634    29 Sep 2024 03:05:56.274      91.640357394    
29 Sep 2024 16:10:58.696    29 Sep 2024 16:12:26.691      87.995323038    
30 Sep 2024 02:54:08.595    30 Sep 2024 02:55:16.505      67.909746571    
30 Sep 2024 16:00:26.814    30 Sep 2024 16:02:01.699      94.885905006    
01 Oct 2024 15:50:15.141    01 Oct 2024 15:51:12.270      57.128990698    
07 Oct 2024 03:14:26.153    07 Oct 2024 03:15:45.557      79.403906339    
08 Oct 2024 03:03:39.847    08 Oct 2024 03:05:14.691      94.843965420    
08 Oct 2024 16:10:11.418    08 Oct 2024 16:11:38.379      86.961102323    
09 Oct 2024 02:53:14.377    09 Oct 2024 02:54:22.202      67.825156404    
09 Oct 2024 15:59:29.069    09 Oct 2024 16:01:00.011      90.942440112    
10 Oct 2024 15:49:10.851    10 Oct 2024 15:49:52.803      41.951870243    
16 Oct 2024 03:12:02.094    16 Oct 2024 03:13:30.510      88.415570394    
16 Oct 2024 16:18:44.296    16 Oct 2024 16:19:24.160      39.863737521    
17 Oct 2024 03:01:07.843    17 Oct 2024 03:02:42.299      94.455756526    
17 Oct 2024 16:07:28.633    17 Oct 2024 16:08:56.312      87.679185206    
18 Oct 2024 02:50:37.521    18 Oct 2024 02:51:29.034      51.513433247    
18 Oct 2024 15:56:37.707    18 Oct 2024 15:57:58.598      80.891630554    
24 Oct 2024 03:18:58.635    24 Oct 2024 03:19:56.218      57.583384356    
25 Oct 2024 03:07:34.962    25 Oct 2024 03:09:10.332      95.370718371    
25 Oct 2024 16:13:53.846    25 Oct 2024 16:14:59.673      65.827572439    
26 Oct 2024 02:56:35.145    26 Oct 2024 02:57:59.265      84.119986359    
26 Oct 2024 16:02:36.556    26 Oct 2024 16:04:02.501      85.945052211    
27 Oct 2024 15:51:42.870    27 Oct 2024 15:52:36.292      53.422067408    
02 Nov 2024 03:12:19.563    02 Nov 2024 03:13:44.472      84.908266319    
02 Nov 2024 16:18:39.040    02 Nov 2024 16:19:02.163      23.123278760    
03 Nov 2024 03:00:56.543    03 Nov 2024 03:02:28.086      91.542204260    
03 Nov 2024 16:06:49.292    03 Nov 2024 16:08:10.359      81.066254305    
04 Nov 2024 02:50:01.976    04 Nov 2024 02:50:41.902      39.926372969    
04 Nov 2024 15:55:31.366    04 Nov 2024 15:56:41.203      69.836732384    
10 Nov 2024 03:15:14.032    10 Nov 2024 03:16:25.086      71.054093074    
11 Nov 2024 03:03:30.534    11 Nov 2024 03:05:01.005      90.470530267    
11 Nov 2024 16:09:11.057    11 Nov 2024 16:10:26.323      75.266105973    
12 Nov 2024 02:52:13.723    12 Nov 2024 02:53:09.101      55.377655837    
12 Nov 2024 15:57:34.559    12 Nov 2024 15:58:49.095      74.536521756    
18 Nov 2024 03:16:17.702    18 Nov 2024 03:17:18.862      61.160831759    
19 Nov 2024 03:04:17.857    19 Nov 2024 03:05:44.836      86.978700547    
19 Nov 2024 16:09:45.153    19 Nov 2024 16:10:59.010      73.857146606    
20 Nov 2024 02:52:47.063    20 Nov 2024 02:53:40.947      53.884484747    
20 Nov 2024 15:57:54.955    20 Nov 2024 15:59:10.648      75.692615868    
26 Nov 2024 03:15:35.862    26 Nov 2024 03:16:36.289      60.426863388    
27 Nov 2024 03:03:25.700    27 Nov 2024 03:04:49.088      83.387999469    
27 Nov 2024 16:08:40.813    27 Nov 2024 16:09:58.736      77.922980895    
28 Nov 2024 02:51:48.510    28 Nov 2024 02:52:28.510      40.000478004    
28 Nov 2024 15:56:41.999    28 Nov 2024 15:57:56.675      74.675954401    
04 Dec 2024 03:13:19.795    04 Dec 2024 03:14:27.324      67.528561188    
04 Dec 2024 16:18:48.931    04 Dec 2024 16:19:12.946      24.015948304    
05 Dec 2024 03:01:05.130    05 Dec 2024 03:02:24.091      78.961592366    
05 Dec 2024 16:06:10.570    05 Dec 2024 16:07:35.134      84.564098879    
06 Dec 2024 15:54:07.819    06 Dec 2024 15:55:17.012      69.192592346    
12 Dec 2024 03:09:42.694    12 Dec 2024 03:10:59.216      76.521717687    
12 Dec 2024 16:14:56.694    12 Dec 2024 16:15:59.442      62.747937790    
13 Dec 2024 02:57:28.023    13 Dec 2024 02:58:38.146      70.123502542    
13 Dec 2024 16:02:26.159    13 Dec 2024 16:03:55.510      89.351332770    
14 Dec 2024 15:50:25.573    14 Dec 2024 15:51:17.072      51.499644597    
19 Dec 2024 03:17:41.230    19 Dec 2024 03:18:24.687      43.456810783    
20 Dec 2024 03:04:55.951    20 Dec 2024 03:06:17.897      81.945676776    
20 Dec 2024 16:10:04.229    20 Dec 2024 16:11:28.603      84.374349355    
21 Dec 2024 02:52:47.505    21 Dec 2024 02:53:34.753      47.247520206    
21 Dec 2024 15:57:37.024    21 Dec 2024 15:59:04.099      87.074824423    
27 Dec 2024 03:11:43.299    27 Dec 2024 03:12:58.253      74.953684676    
27 Dec 2024 16:17:03.382    27 Dec 2024 16:18:00.733      57.350333291    
28 Dec 2024 02:59:08.330    28 Dec 2024 03:00:26.592      78.262722376    
28 Dec 2024 16:04:12.764    28 Dec 2024 16:05:47.359      94.594849076    
29 Dec 2024 15:51:51.409    29 Dec 2024 15:53:00.198      68.789072544    
03 Jan 2025 03:17:52.024    03 Jan 2025 03:18:41.820      49.795182282    
04 Jan 2025 03:04:52.778    04 Jan 2025 03:06:19.929      87.151103618    
04 Jan 2025 16:10:06.991    04 Jan 2025 16:11:34.741      87.750162429    
05 Jan 2025 02:52:29.378    05 Jan 2025 02:53:22.922      53.544293472    
05 Jan 2025 15:57:25.490    05 Jan 2025 15:58:55.221      89.731037384    
11 Jan 2025 03:09:55.601    11 Jan 2025 03:11:21.175      85.574037954    
11 Jan 2025 16:15:18.354    11 Jan 2025 16:16:27.129      68.775358074    
12 Jan 2025 02:57:11.095    12 Jan 2025 02:58:31.042      79.946586583    
12 Jan 2025 16:02:18.346    12 Jan 2025 16:03:53.198      94.851191982    
13 Jan 2025 15:49:49.403    13 Jan 2025 15:50:43.487      54.083197145    
18 Jan 2025 03:14:14.541    18 Jan 2025 03:15:31.303      76.761782519    
18 Jan 2025 16:19:49.632    18 Jan 2025 16:20:19.181      29.548992938    
19 Jan 2025 03:01:12.825    19 Jan 2025 03:02:43.830      91.004851449    
19 Jan 2025 16:06:24.778    19 Jan 2025 16:07:56.359      91.581358016    
20 Jan 2025 02:48:54.824    20 Jan 2025 02:49:13.390      18.565862824    
20 Jan 2025 15:53:37.065    20 Jan 2025 15:54:51.547      74.481926020    
25 Jan 2025 03:17:46.950    25 Jan 2025 03:18:48.965      62.015973846    
26 Jan 2025 03:04:28.397    26 Jan 2025 03:06:03.245      94.847838487    
26 Jan 2025 16:09:40.763    26 Jan 2025 16:11:04.332      83.568848670    
27 Jan 2025 02:51:44.551    27 Jan 2025 02:52:43.499      58.947854675    
27 Jan 2025 15:56:38.126    27 Jan 2025 15:57:59.655      81.528279686    
01 Feb 2025 03:20:29.835    01 Feb 2025 03:21:11.299      41.463974328    
02 Feb 2025 03:06:53.123    02 Feb 2025 03:08:27.757      94.634305523    
02 Feb 2025 16:12:02.024    02 Feb 2025 16:13:15.756      73.732204176    
03 Feb 2025 02:53:54.495    03 Feb 2025 02:55:06.709      72.214531107    
03 Feb 2025 15:58:45.862    03 Feb 2025 16:00:08.680      82.818444120    
08 Feb 2025 03:22:25.927    08 Feb 2025 03:22:27.787      1.8597983639    
09 Feb 2025 03:08:22.046    09 Feb 2025 03:09:54.493      92.446932115    
09 Feb 2025 16:13:23.822    09 Feb 2025 16:14:29.105      65.283387539    
10 Feb 2025 02:55:11.640    10 Feb 2025 02:56:28.195      76.555382134    
10 Feb 2025 15:59:55.590    10 Feb 2025 16:01:17.124      81.534634950    
16 Feb 2025 03:08:50.198    16 Feb 2025 03:10:20.080      89.882118150    
16 Feb 2025 16:13:41.445    16 Feb 2025 16:14:42.774      61.328846903    
17 Feb 2025 02:55:30.235    17 Feb 2025 02:56:45.240      75.005544559    
17 Feb 2025 16:00:03.258    17 Feb 2025 16:01:22.632      79.374496546    
23 Feb 2025 03:08:12.883    23 Feb 2025 03:09:40.738      87.855641136    
23 Feb 2025 16:12:50.935    23 Feb 2025 16:13:54.587      63.651355554    
24 Feb 2025 02:54:45.977    24 Feb 2025 02:55:53.872      67.895207636    
24 Feb 2025 15:59:05.771    24 Feb 2025 16:00:22.339      76.567991765    
01 Mar 2025 03:20:45.641    01 Mar 2025 03:21:07.231      21.589625278    
02 Mar 2025 03:06:26.495    02 Mar 2025 03:07:52.669      86.174074304    
02 Mar 2025 16:10:50.393    02 Mar 2025 16:12:01.071      70.678867539    
03 Mar 2025 02:52:56.795    03 Mar 2025 02:53:48.861      52.065935405    
03 Mar 2025 15:57:01.160    03 Mar 2025 15:58:12.833      71.672756423    
08 Mar 2025 03:17:42.345    08 Mar 2025 03:18:31.974      49.628413108    
09 Mar 2025 03:03:28.688    09 Mar 2025 03:04:51.755      83.066881215    
09 Mar 2025 16:07:39.109    09 Mar 2025 16:08:57.958      78.848756338    
10 Mar 2025 15:53:49.289    10 Mar 2025 15:54:49.443      60.154464631    
15 Mar 2025 03:13:29.458    15 Mar 2025 03:14:37.844      68.385925528    
15 Mar 2025 16:17:47.447    15 Mar 2025 16:18:24.731      37.284001149    
16 Mar 2025 02:59:19.239    16 Mar 2025 03:00:33.737      74.498361256    
16 Mar 2025 16:03:17.296    16 Mar 2025 16:04:41.083      83.786296821    
17 Mar 2025 15:49:38.192    17 Mar 2025 15:50:00.193      22.001167503    
22 Mar 2025 03:08:04.785    22 Mar 2025 03:09:23.822      79.036927968    
22 Mar 2025 16:12:07.322    22 Mar 2025 16:13:20.658      73.335949914    
23 Mar 2025 02:54:02.068    23 Mar 2025 02:54:51.812      49.744168867    
23 Mar 2025 15:57:46.180    23 Mar 2025 15:59:05.864      79.683146300    
28 Mar 2025 03:16:08.489    28 Mar 2025 03:17:04.167      55.677368806    
28 Mar 2025 16:20:28.212    28 Mar 2025 16:20:38.699      10.486212862    
29 Mar 2025 03:01:30.080    29 Mar 2025 03:02:47.518      77.438068204    
29 Mar 2025 16:05:23.064    29 Mar 2025 16:06:51.710      88.646904007    
30 Mar 2025 15:51:11.957    30 Mar 2025 15:52:04.264      52.306195744    
04 Apr 2025 03:08:15.134    04 Apr 2025 03:09:35.032      79.897774674    
04 Apr 2025 16:12:13.759    04 Apr 2025 16:13:32.820      79.061108711    
05 Apr 2025 02:53:53.126    05 Apr 2025 02:54:42.501      49.374265736    
05 Apr 2025 15:57:33.675    05 Apr 2025 15:58:57.922      84.247299086    
10 Apr 2025 03:14:12.456    10 Apr 2025 03:15:20.792      68.336342589    
10 Apr 2025 16:18:18.763    10 Apr 2025 16:19:09.851      51.087675209    
11 Apr 2025 02:59:21.820    11 Apr 2025 03:00:37.724      75.904541393    
11 Apr 2025 16:03:12.075    11 Apr 2025 16:04:45.127      93.052895938    
12 Apr 2025 15:48:54.090    12 Apr 2025 15:49:25.176      31.085534720    
16 Apr 2025 03:19:23.881    16 Apr 2025 03:20:05.340      41.458796512    
17 Apr 2025 03:04:05.916    17 Apr 2025 03:05:31.087      85.170956631    
17 Apr 2025 16:08:01.657    17 Apr 2025 16:09:32.968      91.311433911    
18 Apr 2025 15:53:14.885    18 Apr 2025 15:54:25.348      70.462699619    
23 Apr 2025 03:08:01.749    23 Apr 2025 03:09:28.856      87.106932350    
23 Apr 2025 16:12:01.261    23 Apr 2025 16:13:24.434      83.173506253    
24 Apr 2025 02:53:14.052    24 Apr 2025 02:54:07.424      53.372405260    
24 Apr 2025 15:56:55.441    24 Apr 2025 15:58:19.444      84.003692481    
29 Apr 2025 03:11:08.655    29 Apr 2025 03:12:34.011      85.355104320    
29 Apr 2025 16:15:10.496    29 Apr 2025 16:16:21.516      71.020334016    
30 Apr 2025 02:56:02.106    30 Apr 2025 02:57:14.188      72.081552423    
30 Apr 2025 15:59:47.931    30 Apr 2025 16:01:16.750      88.819230068    
05 May 2025 03:13:26.015    05 May 2025 03:14:48.191      82.176290592    
05 May 2025 16:17:28.661    05 May 2025 16:18:25.564      56.903021294    
06 May 2025 02:58:04.801    06 May 2025 02:59:26.065      81.264017138    
06 May 2025 16:01:50.463    06 May 2025 16:03:19.725      89.262079960    
11 May 2025 03:14:53.089    11 May 2025 03:16:12.328      79.238930368    
11 May 2025 16:18:54.616    11 May 2025 16:19:37.942      43.325577525    
12 May 2025 02:59:19.844    12 May 2025 03:00:45.366      85.522460961    
12 May 2025 16:03:01.964    12 May 2025 16:04:29.565      87.601140153    
17 May 2025 03:15:28.711    17 May 2025 03:16:46.561      77.849558566    
17 May 2025 16:19:25.927    17 May 2025 16:20:00.495      34.567913739    
18 May 2025 02:59:45.878    18 May 2025 03:01:12.242      86.364137835    
18 May 2025 16:03:21.462    18 May 2025 16:04:46.572      85.110351071    
23 May 2025 03:15:11.833    23 May 2025 03:16:30.367      78.533213201    
23 May 2025 16:18:59.622    23 May 2025 16:19:35.560      35.937914229    
24 May 2025 02:59:21.950    24 May 2025 03:00:46.122      84.172219969    
24 May 2025 16:02:48.472    24 May 2025 16:04:10.720      82.248406601    


Number of events : 249


Observer: AustraliaImaging
Start Time (UTC)            Stop Time (UTC)               Duration (s)         
03 Jun 2024 13:54:03.887    03 Jun 2024 13:55:20.738      76.850456977    
04 Jun 2024 13:45:14.305    04 Jun 2024 13:46:30.540      76.235383179    
07 Jun 2024 01:35:19.327    07 Jun 2024 01:36:10.126      50.799369277    
08 Jun 2024 01:26:06.244    08 Jun 2024 01:27:39.815      93.571045285    
09 Jun 2024 01:17:20.013    09 Jun 2024 01:18:41.979      81.966514396    
13 Jun 2024 13:59:41.800    13 Jun 2024 14:00:27.262      45.462459920    
14 Jun 2024 13:50:25.693    14 Jun 2024 13:51:49.276      83.583077684    
15 Jun 2024 13:41:38.217    15 Jun 2024 13:42:40.345      62.128079077    
18 Jun 2024 01:31:14.346    18 Jun 2024 01:32:26.924      72.578780539    
19 Jun 2024 01:22:05.989    19 Jun 2024 01:23:35.191      89.201926393    
20 Jun 2024 01:13:25.941    20 Jun 2024 01:14:14.622      48.681221064    
24 Jun 2024 13:54:32.143    24 Jun 2024 13:55:51.089      78.946708934    
25 Jun 2024 13:45:25.151    25 Jun 2024 13:46:48.727      83.575854579    
28 Jun 2024 01:35:18.993    28 Jun 2024 01:35:46.106      27.112743014    
29 Jun 2024 01:25:42.884    29 Jun 2024 01:27:06.718      83.834571240    
30 Jun 2024 01:16:41.884    30 Jun 2024 01:17:51.711      69.827647554    
04 Jul 2024 13:57:33.457    04 Jul 2024 13:58:42.939      69.482256146    
05 Jul 2024 13:48:10.830    05 Jul 2024 13:49:43.228      92.398163583    
06 Jul 2024 13:39:15.125    06 Jul 2024 13:40:14.225      59.099841001    
09 Jul 2024 01:28:06.469    09 Jul 2024 01:29:21.841      75.372073450    
10 Jul 2024 01:18:50.252    10 Jul 2024 01:20:06.680      76.427575923    
14 Jul 2024 13:59:25.026    14 Jul 2024 14:00:25.177      60.151284956    
15 Jul 2024 13:49:48.776    15 Jul 2024 13:51:24.984      96.207549667    
16 Jul 2024 13:40:39.234    16 Jul 2024 13:41:55.555      76.320739032    
19 Jul 2024 01:29:11.260    19 Jul 2024 01:30:21.975      70.714379568    
20 Jul 2024 01:19:43.366    20 Jul 2024 01:21:02.842      79.475801694    
24 Jul 2024 13:59:58.267    24 Jul 2024 14:00:54.764      56.496625766    
25 Jul 2024 13:50:11.668    25 Jul 2024 13:51:49.274      97.606158117    
26 Jul 2024 13:40:52.811    26 Jul 2024 13:42:13.338      80.527008022    
29 Jul 2024 01:28:52.623    29 Jul 2024 01:30:06.677      74.054286769    
30 Jul 2024 01:19:17.228    30 Jul 2024 01:20:39.120      81.892810436    
03 Aug 2024 13:59:04.890    03 Aug 2024 14:00:06.708      61.818578769    
04 Aug 2024 13:49:12.668    04 Aug 2024 13:50:49.814      97.146043496    
05 Aug 2024 13:39:48.512    05 Aug 2024 13:41:02.031      73.518817686    
08 Aug 2024 01:27:09.756    08 Aug 2024 01:28:33.422      83.666379447    
09 Aug 2024 01:17:31.054    09 Aug 2024 01:18:53.254      82.199769141    
13 Aug 2024 13:56:41.634    13 Aug 2024 13:57:54.548      72.914634808    
14 Aug 2024 13:46:47.886    14 Aug 2024 13:48:21.174      93.288142537    
15 Aug 2024 13:37:25.995    15 Aug 2024 13:38:13.075      47.080001060    
17 Aug 2024 01:34:16.687    17 Aug 2024 01:35:00.897      44.209252764    
18 Aug 2024 01:24:05.007    18 Aug 2024 01:25:38.402      93.394999229    
19 Aug 2024 01:14:27.247    19 Aug 2024 01:15:41.475      74.227795936    
23 Aug 2024 13:52:49.331    23 Aug 2024 13:54:12.498      83.167227369    
24 Aug 2024 13:42:57.647    24 Aug 2024 13:44:18.579      80.932109174    
27 Aug 2024 01:29:43.824    27 Aug 2024 01:31:04.915      81.091211108    
28 Aug 2024 01:19:41.536    28 Aug 2024 01:21:16.975      95.438916993    
29 Aug 2024 01:10:15.667    29 Aug 2024 01:10:52.117      36.450046836    
01 Sep 2024 13:57:47.606    01 Sep 2024 13:58:40.054      52.448163705    
02 Sep 2024 13:47:30.574    02 Sep 2024 13:48:55.694      85.120795970    
03 Sep 2024 13:37:51.095    03 Sep 2024 13:38:30.810      39.715090231    
05 Sep 2024 01:34:25.257    05 Sep 2024 01:35:11.252      45.994730468    
06 Sep 2024 01:23:56.615    06 Sep 2024 01:25:33.553      96.938482008    
07 Sep 2024 01:14:02.880    07 Sep 2024 01:15:20.344      77.464653191    
11 Sep 2024 13:50:53.651    11 Sep 2024 13:52:13.558      79.907176341    
12 Sep 2024 13:40:50.766    12 Sep 2024 13:41:55.683      64.917164482    
15 Sep 2024 01:27:02.783    15 Sep 2024 01:28:31.876      89.093347220    
16 Sep 2024 01:16:51.086    16 Sep 2024 01:18:19.213      88.127104472    
20 Sep 2024 13:52:59.893    20 Sep 2024 13:54:13.531      73.637962458    
21 Sep 2024 13:42:40.721    21 Sep 2024 13:43:54.476      73.755072942    
24 Sep 2024 01:28:49.428    24 Sep 2024 01:30:08.087      78.659001470    
25 Sep 2024 01:18:22.604    25 Sep 2024 01:19:51.183      88.579489617    
29 Sep 2024 13:53:39.804    29 Sep 2024 13:54:52.351      72.547165153    
30 Sep 2024 13:43:08.361    30 Sep 2024 13:44:26.127      77.766288235    
03 Oct 2024 01:29:02.394    03 Oct 2024 01:30:14.866      72.471586894    
04 Oct 2024 01:18:23.615    04 Oct 2024 01:19:47.983      84.367887536    
08 Oct 2024 13:52:41.549    08 Oct 2024 13:54:00.726      79.176517774    
09 Oct 2024 13:42:01.941    09 Oct 2024 13:43:20.148      78.207051032    
12 Oct 2024 01:27:25.671    12 Oct 2024 01:28:40.348      74.676909938    
13 Oct 2024 01:16:39.768    13 Oct 2024 01:17:55.559      75.790447765    
17 Oct 2024 13:49:52.741    17 Oct 2024 13:51:22.198      89.457051305    
18 Oct 2024 13:39:09.879    18 Oct 2024 13:40:18.779      68.900225381    
21 Oct 2024 01:23:46.600    21 Oct 2024 01:25:07.472      80.871703837    
22 Oct 2024 01:13:01.519    22 Oct 2024 01:13:54.006      52.487211849    
25 Oct 2024 13:56:20.742    25 Oct 2024 13:57:30.196      69.454240054    
26 Oct 2024 13:45:03.318    26 Oct 2024 13:46:36.685      93.367663329    
29 Oct 2024 01:29:20.635    29 Oct 2024 01:30:22.485      61.850194156    
30 Oct 2024 01:17:59.726    30 Oct 2024 01:19:17.352      77.625909168    
03 Nov 2024 13:49:21.252    03 Nov 2024 13:50:56.557      95.304942853    
04 Nov 2024 13:38:12.952    04 Nov 2024 13:39:22.812      69.859707705    
06 Nov 2024 01:33:15.242    06 Nov 2024 01:33:38.966      23.724475899    
07 Nov 2024 01:21:18.697    07 Nov 2024 01:22:42.006      83.308911498    
08 Nov 2024 01:10:27.444    08 Nov 2024 01:10:37.981      10.536742536    
11 Nov 2024 13:51:53.583    11 Nov 2024 13:53:24.124      90.540410194    
12 Nov 2024 13:40:23.285    12 Nov 2024 13:41:45.993      82.708127692    
15 Nov 2024 01:22:52.760    15 Nov 2024 01:24:18.314      85.553473793    
16 Nov 2024 01:11:32.091    16 Nov 2024 01:12:18.073      45.982328290    
19 Nov 2024 13:52:40.195    19 Nov 2024 13:54:06.736      86.540767900    
20 Nov 2024 13:40:55.100    20 Nov 2024 13:42:18.202      83.102111612    
23 Nov 2024 01:22:46.863    23 Nov 2024 01:24:15.918      89.055410202    
24 Nov 2024 01:11:14.748    24 Nov 2024 01:12:03.959      49.211251759    
27 Nov 2024 13:51:47.162    27 Nov 2024 13:53:13.214      86.051476083    
28 Nov 2024 13:39:54.365    28 Nov 2024 13:41:09.172      74.806384253    
30 Nov 2024 01:33:41.882    30 Nov 2024 01:34:17.333      35.451483680    
01 Dec 2024 01:21:11.287    01 Dec 2024 01:22:44.170      92.882585304    
02 Dec 2024 01:09:40.172    02 Dec 2024 01:10:10.764      30.591750308    
05 Dec 2024 13:49:24.776    05 Dec 2024 13:50:51.870      87.093919760    
06 Dec 2024 13:37:33.208    06 Dec 2024 13:38:25.403      52.194900834    
08 Dec 2024 01:30:40.818    08 Dec 2024 01:31:49.307      68.489058455    
09 Dec 2024 01:18:17.599    09 Dec 2024 01:19:50.232      92.632453074    
12 Dec 2024 13:58:24.721    12 Dec 2024 13:59:01.732      37.010863109    
13 Dec 2024 13:45:44.302    13 Dec 2024 13:47:08.748      84.445975022    
16 Dec 2024 01:26:32.612    16 Dec 2024 01:28:01.306      88.693636050    
17 Dec 2024 01:14:16.981    17 Dec 2024 01:15:37.814      80.833423580    
20 Dec 2024 13:53:22.409    20 Dec 2024 13:54:33.011      70.602695842    
21 Dec 2024 13:40:57.395    21 Dec 2024 13:42:06.427      69.031911576    
23 Dec 2024 01:34:22.061    23 Dec 2024 01:34:53.100      31.039311877    
24 Dec 2024 01:21:22.412    24 Dec 2024 01:22:57.959      95.547256339    
25 Dec 2024 01:09:26.858    25 Dec 2024 01:09:58.540      31.681730063    
28 Dec 2024 13:47:23.329    28 Dec 2024 13:48:44.641      81.311668886    
31 Dec 2024 01:27:51.725    31 Dec 2024 01:29:13.334      81.608942407    
01 Jan 2025 01:15:16.476    01 Jan 2025 01:16:38.331      81.855262863    
04 Jan 2025 13:53:11.315    04 Jan 2025 13:54:21.384      70.069084084    
05 Jan 2025 13:40:32.587    05 Jan 2025 13:41:38.346      65.758601215    
07 Jan 2025 01:33:49.459    07 Jan 2025 01:34:19.901      30.442701001    
08 Jan 2025 01:20:36.791    08 Jan 2025 01:22:07.098      90.306441626    
11 Jan 2025 13:58:23.910    11 Jan 2025 13:58:56.522      32.611404033    
12 Jan 2025 13:45:12.019    12 Jan 2025 13:46:33.856      81.837445556    
15 Jan 2025 01:25:14.320    15 Jan 2025 01:26:37.523      83.203139843    
16 Jan 2025 01:12:36.661    16 Jan 2025 01:13:34.247      57.586066774    
19 Jan 2025 13:49:09.687    19 Jan 2025 13:50:34.139      84.451694728    
20 Jan 2025 13:36:38.828    20 Jan 2025 13:37:13.415      34.587611945    
22 Jan 2025 01:29:05.011    22 Jan 2025 01:30:10.957      65.945534105    
23 Jan 2025 01:16:02.655    23 Jan 2025 01:17:16.756      74.101423973    
26 Jan 2025 13:52:20.845    26 Jan 2025 13:53:41.639      80.793724163    
27 Jan 2025 13:39:24.606    27 Jan 2025 13:40:32.548      67.941394961    
29 Jan 2025 01:32:06.955    29 Jan 2025 01:32:46.052      39.096787095    
30 Jan 2025 01:18:40.593    30 Jan 2025 01:19:59.861      79.267610935    
02 Feb 2025 13:54:41.240    02 Feb 2025 13:55:56.061      74.820784258    
03 Feb 2025 13:41:27.843    03 Feb 2025 13:42:49.379      81.535887835    
06 Feb 2025 01:20:24.365    06 Feb 2025 01:21:44.864      80.499066738    
09 Feb 2025 13:56:05.874    09 Feb 2025 13:57:15.967      70.093724679    
10 Feb 2025 13:42:39.034    10 Feb 2025 13:44:06.840      87.806139921    
13 Feb 2025 01:21:09.845    13 Feb 2025 01:22:31.007      81.161939702    
16 Feb 2025 13:56:29.439    16 Feb 2025 13:57:38.955      69.516068324    
17 Feb 2025 13:42:52.757    17 Feb 2025 13:44:22.346      89.588611457    
20 Feb 2025 01:20:53.510    20 Feb 2025 01:22:16.009      82.499291631    
23 Feb 2025 13:55:47.144    23 Feb 2025 13:57:01.276      74.132025987    
24 Feb 2025 13:42:04.747    24 Feb 2025 13:43:31.668      86.920460255    
26 Feb 2025 01:33:45.377    26 Feb 2025 01:34:06.364      20.987660880    
27 Feb 2025 01:19:33.064    27 Feb 2025 01:20:56.697      83.633312210    
02 Mar 2025 13:53:55.885    02 Mar 2025 13:55:17.684      81.799080747    
03 Mar 2025 13:40:12.094    03 Mar 2025 13:41:29.321      77.227342443    
05 Mar 2025 01:31:09.291    05 Mar 2025 01:32:07.314      58.023397496    
06 Mar 2025 01:17:07.237    06 Mar 2025 01:18:28.504      81.266184698    
09 Mar 2025 13:50:53.682    09 Mar 2025 13:52:22.160      88.478320884    
10 Mar 2025 13:37:16.031    10 Mar 2025 13:38:06.318      50.286589167    
12 Mar 2025 01:27:30.791    12 Mar 2025 01:28:51.626      80.834870087    
13 Mar 2025 01:13:37.073    13 Mar 2025 01:14:45.078      68.005036865    
16 Mar 2025 13:46:40.107    16 Mar 2025 13:48:08.687      88.580097829    
19 Mar 2025 01:22:45.753    19 Mar 2025 01:24:18.335      92.582354019    
22 Mar 2025 13:55:37.549    22 Mar 2025 13:56:43.437      65.888322273    
23 Mar 2025 13:41:17.719    23 Mar 2025 13:42:29.810      72.090833075    
25 Mar 2025 01:31:25.676    25 Mar 2025 01:32:31.596      65.919498552    
26 Mar 2025 01:16:55.312    26 Mar 2025 01:18:22.212      86.899422726    
29 Mar 2025 13:48:51.844    29 Mar 2025 13:50:14.855      83.011355717    
01 Apr 2025 01:24:13.544    01 Apr 2025 01:25:46.755      93.210932636    
02 Apr 2025 01:10:13.806    02 Apr 2025 01:10:46.459      32.653402083    
04 Apr 2025 13:55:45.086    04 Apr 2025 13:56:45.702      60.615699808    
05 Apr 2025 13:41:05.691    05 Apr 2025 13:42:10.600      64.909265272    
07 Apr 2025 01:30:50.400    07 Apr 2025 01:32:00.981      70.581184945    
08 Apr 2025 01:16:04.532    08 Apr 2025 01:17:27.245      82.712584769    
11 Apr 2025 13:46:35.072    11 Apr 2025 13:47:54.958      79.886456905    
14 Apr 2025 01:21:20.275    14 Apr 2025 01:22:52.185      91.909439431    
17 Apr 2025 13:51:18.526    17 Apr 2025 13:52:35.713      77.186832705    
20 Apr 2025 01:25:48.642    20 Apr 2025 01:27:14.987      86.344653368    
21 Apr 2025 01:11:15.506    21 Apr 2025 01:11:50.099      34.593622398    
23 Apr 2025 13:55:13.809    23 Apr 2025 13:56:18.640      64.830357407    
24 Apr 2025 13:40:12.047    24 Apr 2025 13:41:09.681      57.633995754    
26 Apr 2025 01:29:27.640    26 Apr 2025 01:30:39.575      71.935289260    
27 Apr 2025 01:14:23.475    27 Apr 2025 01:15:27.428      63.953006314    
29 Apr 2025 13:58:21.387    29 Apr 2025 13:59:06.635      45.247731591    
30 Apr 2025 13:42:53.618    30 Apr 2025 13:44:07.587      73.968360736    
02 May 2025 01:32:16.819    02 May 2025 01:33:08.105      51.285437727    
03 May 2025 01:16:48.661    03 May 2025 01:18:02.047      73.386414838    
05 May 2025 14:00:45.031    05 May 2025 14:00:58.089      13.058568025    
06 May 2025 13:44:49.257    06 May 2025 13:46:11.110      81.853070785    
08 May 2025 01:34:17.322    08 May 2025 01:34:40.658      23.336144735    
09 May 2025 01:18:24.991    09 May 2025 01:19:41.255      76.264068775    
12 May 2025 13:45:57.024    12 May 2025 13:47:23.290      86.266252189    
15 May 2025 01:19:10.926    15 May 2025 01:20:27.305      76.378695492    
18 May 2025 13:46:15.934    18 May 2025 13:47:44.821      88.887230353    
21 May 2025 01:19:05.868    21 May 2025 01:20:20.966      75.097620918    
24 May 2025 13:45:45.519    24 May 2025 13:47:15.330      89.811299974    
26 May 2025 01:34:27.408    26 May 2025 01:34:47.962      20.553346700    


Number of events : 184


Observer: SudburyImaging
Start Time (UTC)            Stop Time (UTC)               Duration (s)         
01 Jun 2024 03:22:23.371    01 Jun 2024 03:23:49.232      85.860818485    
01 Jun 2024 16:28:24.929    01 Jun 2024 16:29:59.943      95.013435557    
02 Jun 2024 03:13:40.078    02 Jun 2024 03:14:56.230      76.152407366    
02 Jun 2024 16:19:37.884    02 Jun 2024 16:21:11.341      93.456740433    
03 Jun 2024 16:11:04.255    03 Jun 2024 16:12:06.495      62.240272004    
10 Jun 2024 03:37:35.008    10 Jun 2024 03:38:03.092      28.084720869    
11 Jun 2024 03:28:12.040    11 Jun 2024 03:29:34.385      82.345295534    
11 Jun 2024 16:34:21.371    11 Jun 2024 16:35:44.663      83.291571960    
12 Jun 2024 03:19:12.086    12 Jun 2024 03:20:42.569      90.482633212    
12 Jun 2024 16:25:18.851    12 Jun 2024 16:26:57.240      98.389389762    
13 Jun 2024 03:10:25.730    13 Jun 2024 03:11:37.083      71.353018354    
13 Jun 2024 16:16:27.531    13 Jun 2024 16:17:55.852      88.320229808    
14 Jun 2024 16:07:56.976    14 Jun 2024 16:08:30.935      33.958543930    
21 Jun 2024 03:32:54.250    21 Jun 2024 03:34:04.464      70.214190229    
21 Jun 2024 16:39:10.068    21 Jun 2024 16:40:07.707      57.638679771    
22 Jun 2024 03:23:39.305    22 Jun 2024 03:25:13.505      94.199947023    
22 Jun 2024 16:29:50.983    22 Jun 2024 16:31:23.001      92.017810210    
23 Jun 2024 03:14:38.529    23 Jun 2024 03:16:08.380      89.850526652    
23 Jun 2024 16:20:46.379    23 Jun 2024 16:22:21.014      94.634931651    
24 Jun 2024 03:05:54.897    24 Jun 2024 03:06:46.119      51.221754332    
24 Jun 2024 16:11:54.894    24 Jun 2024 16:13:03.100      68.205662223    
01 Jul 2024 03:36:32.703    01 Jul 2024 03:37:22.330      49.627481773    
02 Jul 2024 03:27:01.588    02 Jul 2024 03:28:33.337      91.748964228    
02 Jul 2024 16:33:12.460    02 Jul 2024 16:34:31.798      79.338013264    
03 Jul 2024 03:17:48.881    03 Jul 2024 03:19:25.911      97.029610374    
03 Jul 2024 16:23:55.436    03 Jul 2024 16:25:27.746      92.310076591    
04 Jul 2024 03:08:50.015    04 Jul 2024 03:10:04.612      74.596852600    
04 Jul 2024 16:14:51.080    04 Jul 2024 16:16:08.123      77.042778907    
11 Jul 2024 03:39:12.405    11 Jul 2024 03:39:16.686      4.2815027526    
12 Jul 2024 03:29:14.014    12 Jul 2024 03:30:39.745      85.731032677    
12 Jul 2024 16:35:17.877    12 Jul 2024 16:36:22.984      65.106925007    
13 Jul 2024 03:19:50.298    13 Jul 2024 03:21:27.990      97.691327578    
13 Jul 2024 16:25:48.634    13 Jul 2024 16:27:15.549      86.914665741    
14 Jul 2024 03:10:40.313    14 Jul 2024 03:12:02.354      82.040823111    
14 Jul 2024 16:16:33.436    14 Jul 2024 16:17:51.043      77.607290028    
22 Jul 2024 03:30:08.065    22 Jul 2024 03:31:27.179      79.113948019    
22 Jul 2024 16:35:59.540    22 Jul 2024 16:36:55.104      55.563354702    
23 Jul 2024 03:20:34.256    23 Jul 2024 03:22:08.892      94.636298949    
23 Jul 2024 16:26:19.402    23 Jul 2024 16:27:41.970      82.567497797    
24 Jul 2024 03:11:14.991    24 Jul 2024 03:12:35.803      80.811632308    
24 Jul 2024 16:16:54.972    24 Jul 2024 16:18:09.994      75.021730224    
01 Aug 2024 03:29:35.220    01 Aug 2024 03:30:50.550      75.329858833    
01 Aug 2024 16:35:11.114    01 Aug 2024 16:36:07.650      56.535757205    
02 Aug 2024 03:19:53.065    02 Aug 2024 03:21:23.088      90.022867487    
02 Aug 2024 16:25:23.409    02 Aug 2024 16:26:44.938      81.528399757    
03 Aug 2024 03:10:26.586    03 Aug 2024 03:11:39.668      73.082058085    
03 Aug 2024 16:15:51.873    03 Aug 2024 16:17:02.889      71.015538415    
11 Aug 2024 03:27:30.848    11 Aug 2024 03:28:47.013      76.164604607    
11 Aug 2024 16:32:52.475    11 Aug 2024 16:33:59.480      67.005447764    
12 Aug 2024 03:17:42.954    12 Aug 2024 03:19:07.613      84.658980242    
12 Aug 2024 16:23:00.567    12 Aug 2024 16:24:23.765      83.197622246    
13 Aug 2024 03:08:12.829    13 Aug 2024 03:09:10.202      57.373392535    
13 Aug 2024 16:13:24.784    13 Aug 2024 16:14:28.749      63.965555909    
20 Aug 2024 03:34:08.693    20 Aug 2024 03:34:46.360      37.667276454    
20 Aug 2024 16:39:27.322    20 Aug 2024 16:39:50.988      23.665565788    
21 Aug 2024 03:23:55.456    21 Aug 2024 03:25:15.332      79.876297410    
21 Aug 2024 16:29:08.200    21 Aug 2024 16:30:28.691      80.490821775    
22 Aug 2024 03:14:04.781    22 Aug 2024 03:15:21.558      76.776554051    
22 Aug 2024 16:19:14.106    22 Aug 2024 16:20:38.161      84.055104456    
23 Aug 2024 03:04:45.558    23 Aug 2024 03:04:56.158      10.599867697    
23 Aug 2024 16:09:39.266    23 Aug 2024 16:10:25.166      45.900311787    
30 Aug 2024 03:29:01.279    30 Aug 2024 03:30:07.295      66.015923547    
30 Aug 2024 16:34:12.740    30 Aug 2024 16:35:21.701      68.960774364    
31 Aug 2024 03:18:52.862    31 Aug 2024 03:20:14.836      81.974290393    
31 Aug 2024 16:24:02.659    31 Aug 2024 16:25:33.285      90.625529992    
01 Sep 2024 03:09:03.489    01 Sep 2024 03:10:03.227      59.738093801    
01 Sep 2024 16:14:08.337    01 Sep 2024 16:15:25.835      77.497836412    
08 Sep 2024 03:32:59.570    08 Sep 2024 03:33:45.503      45.932778670    
08 Sep 2024 16:38:12.872    08 Sep 2024 16:39:03.007      50.135059550    
09 Sep 2024 03:22:32.816    09 Sep 2024 03:23:55.067      82.251210348    
09 Sep 2024 16:27:45.917    09 Sep 2024 16:29:16.855      90.937759867    
10 Sep 2024 03:12:27.643    10 Sep 2024 03:13:42.945      75.302052079    
10 Sep 2024 16:17:37.782    10 Sep 2024 16:19:08.452      90.669812844    
11 Sep 2024 16:07:50.024    11 Sep 2024 16:08:36.215      46.191379661    
17 Sep 2024 03:35:49.067    17 Sep 2024 03:36:07.568      18.501343019    
17 Sep 2024 16:41:06.813    17 Sep 2024 16:41:26.670      19.856704306    
18 Sep 2024 03:25:00.357    18 Sep 2024 03:26:22.271      81.913822191    
18 Sep 2024 16:30:17.993    18 Sep 2024 16:31:46.251      88.258317299    
19 Sep 2024 03:14:42.191    19 Sep 2024 03:16:06.230      84.039217397    
19 Sep 2024 16:19:57.639    19 Sep 2024 16:21:33.662      96.022813884    
20 Sep 2024 03:04:47.435    20 Sep 2024 03:05:26.567      39.132122789    
20 Sep 2024 16:09:53.938    20 Sep 2024 16:11:00.676      66.737532488    
27 Sep 2024 03:26:08.096    27 Sep 2024 03:27:31.633      83.536531089    
27 Sep 2024 16:31:29.072    27 Sep 2024 16:32:54.178      85.105308727    
28 Sep 2024 03:15:38.591    28 Sep 2024 03:17:08.298      89.706827723    
28 Sep 2024 16:20:57.196    28 Sep 2024 16:22:33.955      96.758853632    
29 Sep 2024 03:05:29.637    29 Sep 2024 03:06:23.991      54.353478318    
29 Sep 2024 16:10:41.731    29 Sep 2024 16:11:53.200      71.469333919    
05 Oct 2024 03:36:57.102    05 Oct 2024 03:37:13.718      16.615356971    
06 Oct 2024 03:25:44.651    06 Oct 2024 03:27:12.594      87.943086913    
06 Oct 2024 16:31:05.023    06 Oct 2024 16:32:28.856      83.832753205    
07 Oct 2024 03:15:05.115    07 Oct 2024 03:16:37.832      92.716860306    
07 Oct 2024 16:20:22.321    07 Oct 2024 16:21:56.564      94.243379321    
08 Oct 2024 03:04:46.499    08 Oct 2024 03:05:41.398      54.899882642    
08 Oct 2024 16:09:57.371    08 Oct 2024 16:11:01.917      64.546654082    
14 Oct 2024 03:34:46.514    14 Oct 2024 03:35:35.434      48.919914826    
14 Oct 2024 16:40:11.998    14 Oct 2024 16:40:27.936      15.938508965    
15 Oct 2024 03:23:35.057    15 Oct 2024 03:25:08.727      93.669494195    
15 Oct 2024 16:28:48.829    15 Oct 2024 16:30:14.119      85.290268308    
16 Oct 2024 03:12:46.779    16 Oct 2024 03:14:17.780      91.001382913    
16 Oct 2024 16:17:56.540    16 Oct 2024 16:19:24.398      87.858134334    
17 Oct 2024 03:02:25.640    17 Oct 2024 03:02:58.601      32.960359217    
17 Oct 2024 16:07:28.557    17 Oct 2024 16:08:05.295      36.738012359    
23 Oct 2024 03:30:38.791    23 Oct 2024 03:31:52.744      73.952625180    
23 Oct 2024 16:35:45.153    23 Oct 2024 16:36:39.617      54.464410502    
24 Oct 2024 03:19:24.391    24 Oct 2024 03:21:01.059      96.668168146    
24 Oct 2024 16:24:25.367    24 Oct 2024 16:25:52.103      86.735975929    
25 Oct 2024 03:08:29.906    25 Oct 2024 03:09:48.143      78.237367957    
25 Oct 2024 16:13:26.320    25 Oct 2024 16:14:38.467      72.147119546    
31 Oct 2024 03:36:08.509    31 Oct 2024 03:36:37.398      28.888406348    
01 Nov 2024 03:24:20.672    01 Nov 2024 03:25:50.743      90.070848959    
01 Nov 2024 16:29:08.789    01 Nov 2024 16:30:25.111      76.321279351    
02 Nov 2024 03:13:03.266    02 Nov 2024 03:14:32.284      89.018269046    
02 Nov 2024 16:17:47.065    02 Nov 2024 16:19:07.101      80.036287929    
03 Nov 2024 03:02:18.028    03 Nov 2024 03:02:40.296      22.267832095    
09 Nov 2024 03:27:27.249    09 Nov 2024 03:28:46.524      79.275760031    
09 Nov 2024 16:32:00.689    09 Nov 2024 16:33:05.652      64.963173587    
10 Nov 2024 03:15:49.996    10 Nov 2024 03:17:19.585      89.589193580    
10 Nov 2024 16:20:19.310    10 Nov 2024 16:21:40.341      81.031495705    
11 Nov 2024 03:04:38.403    11 Nov 2024 03:05:25.805      47.402015759    
11 Nov 2024 16:09:04.684    11 Nov 2024 16:09:42.840      38.155746949    
17 Nov 2024 03:28:43.184    17 Nov 2024 03:29:53.857      70.672687981    
17 Nov 2024 16:33:02.014    17 Nov 2024 16:34:01.835      59.820776037    
18 Nov 2024 03:16:49.825    18 Nov 2024 03:18:16.448      86.623749370    
18 Nov 2024 16:21:05.320    18 Nov 2024 16:22:26.467      81.147117249    
19 Nov 2024 03:05:23.497    19 Nov 2024 03:06:11.143      47.646143194    
19 Nov 2024 16:09:35.525    19 Nov 2024 16:10:18.970      43.444848340    
25 Nov 2024 03:28:13.818    25 Nov 2024 03:29:22.306      68.488377635    
25 Nov 2024 16:32:20.188    25 Nov 2024 16:33:24.257      64.068596426    
26 Nov 2024 03:16:09.370    26 Nov 2024 03:17:32.127      82.756859763    
26 Nov 2024 16:20:13.689    26 Nov 2024 16:21:35.719      82.029923075    
27 Nov 2024 03:04:36.596    27 Nov 2024 03:05:09.816      33.219850995    
27 Nov 2024 16:08:36.444    27 Nov 2024 16:09:12.976      36.531595315    
03 Dec 2024 03:26:09.798    03 Dec 2024 03:27:22.246      72.448401607    
03 Dec 2024 16:30:08.005    03 Dec 2024 16:31:22.404      74.399387743    
04 Dec 2024 03:13:59.448    04 Dec 2024 03:15:17.110      77.662013378    
04 Dec 2024 16:17:56.267    04 Dec 2024 16:19:18.568      82.300723821    
10 Dec 2024 16:39:34.052    10 Dec 2024 16:39:37.254      3.2027977053    
11 Dec 2024 03:22:43.520    11 Dec 2024 03:24:02.025      78.505032719    
11 Dec 2024 16:26:38.266    11 Dec 2024 16:28:03.501      85.234865709    
12 Dec 2024 03:10:31.859    12 Dec 2024 03:11:40.072      68.213786487    
12 Dec 2024 16:14:24.698    12 Dec 2024 16:15:42.961      78.263214603    
18 Dec 2024 03:30:45.640    18 Dec 2024 03:31:39.038      53.398140322    
18 Dec 2024 16:34:38.387    18 Dec 2024 16:35:42.549      64.161834517    
19 Dec 2024 03:18:06.341    19 Dec 2024 03:19:28.236      81.895115983    
19 Dec 2024 16:22:01.089    19 Dec 2024 16:23:32.890      91.801754816    
20 Dec 2024 03:05:59.874    20 Dec 2024 03:06:45.056      45.181705558    
20 Dec 2024 16:09:49.950    20 Dec 2024 16:10:52.566      62.616117694    
26 Dec 2024 03:24:59.533    26 Dec 2024 03:26:16.917      77.383767616    
26 Dec 2024 16:28:56.343    26 Dec 2024 16:30:23.376      87.032851519    
27 Dec 2024 03:12:27.194    27 Dec 2024 03:13:44.462      77.267971309    
27 Dec 2024 16:16:23.415    27 Dec 2024 16:17:52.533      89.118036849    
02 Jan 2025 03:31:12.579    02 Jan 2025 03:32:09.996      57.417848264    
02 Jan 2025 16:35:10.687    02 Jan 2025 16:36:17.396      66.709368350    
03 Jan 2025 03:18:18.076    03 Jan 2025 03:19:45.153      87.076933205    
03 Jan 2025 16:22:18.153    03 Jan 2025 16:23:53.775      95.621985616    
04 Jan 2025 03:05:55.604    04 Jan 2025 03:06:48.996      53.392005397    
04 Jan 2025 16:09:51.829    04 Jan 2025 16:10:59.366      67.537156621    
10 Jan 2025 03:23:27.183    10 Jan 2025 03:24:53.844      86.661278398    
10 Jan 2025 16:27:29.507    10 Jan 2025 16:29:00.717      91.209936084    
11 Jan 2025 03:10:44.284    11 Jan 2025 03:12:03.876      79.591758933    
11 Jan 2025 16:14:45.171    11 Jan 2025 16:16:11.501      86.329790368    
17 Jan 2025 03:27:52.429    17 Jan 2025 03:29:11.749      79.320084688    
17 Jan 2025 16:31:54.852    17 Jan 2025 16:33:13.812      78.959898488    
18 Jan 2025 03:14:53.003    18 Jan 2025 03:16:23.802      90.798590623    
18 Jan 2025 16:18:54.717    18 Jan 2025 16:20:26.793      92.075304303    
19 Jan 2025 03:02:31.525    19 Jan 2025 03:02:58.655      27.129678649    
19 Jan 2025 16:06:28.759    19 Jan 2025 16:07:00.771      32.012944948    
24 Jan 2025 03:31:31.172    24 Jan 2025 03:32:37.696      66.524228349    
24 Jan 2025 16:35:31.375    24 Jan 2025 16:36:31.617      60.241399950    
25 Jan 2025 03:18:15.803    25 Jan 2025 03:19:50.677      94.874220109    
25 Jan 2025 16:22:15.063    25 Jan 2025 16:23:46.296      91.232642031    
26 Jan 2025 03:05:31.602    26 Jan 2025 03:06:33.179      61.576518312    
26 Jan 2025 16:09:28.628    26 Jan 2025 16:10:26.119      57.491177553    
31 Jan 2025 03:34:20.247    31 Jan 2025 03:35:09.296      49.048964179    
31 Jan 2025 16:38:17.125    31 Jan 2025 16:38:50.874      33.748081885    
01 Feb 2025 03:20:48.220    01 Feb 2025 03:22:23.067      94.847054884    
01 Feb 2025 16:24:41.760    01 Feb 2025 16:26:09.019      87.258474226    
02 Feb 2025 03:07:49.684    02 Feb 2025 03:09:03.932      74.247923819    
02 Feb 2025 16:11:41.243    02 Feb 2025 16:12:47.155      65.911484614    
07 Feb 2025 03:36:16.034    07 Feb 2025 03:36:42.481      26.446575334    
08 Feb 2025 03:22:25.366    08 Feb 2025 03:23:58.079      92.713729979    
08 Feb 2025 16:26:10.323    08 Feb 2025 16:27:33.065      82.741893665    
09 Feb 2025 03:09:15.116    09 Feb 2025 03:10:33.743      78.627030901    
09 Feb 2025 16:12:58.244    09 Feb 2025 16:14:05.929      67.684667010    
15 Feb 2025 03:23:02.364    15 Feb 2025 03:24:32.407      90.042807406    
15 Feb 2025 16:26:36.636    15 Feb 2025 16:27:56.276      79.639715573    
16 Feb 2025 03:09:42.316    16 Feb 2025 03:10:59.894      77.578258677    
16 Feb 2025 16:13:14.993    16 Feb 2025 16:14:20.712      65.719285584    
22 Feb 2025 03:22:34.425    22 Feb 2025 03:24:02.270      87.845255644    
22 Feb 2025 16:25:57.031    22 Feb 2025 16:27:15.983      78.952847945    
23 Feb 2025 03:09:06.777    23 Feb 2025 03:10:18.486      71.709039167    
23 Feb 2025 16:12:28.327    23 Feb 2025 16:13:28.491      60.163424676    
28 Feb 2025 03:35:14.086    28 Feb 2025 03:35:38.952      24.866463896    
28 Feb 2025 16:38:29.721    28 Feb 2025 16:38:38.855      9.1341249179    
01 Mar 2025 03:20:57.802    01 Mar 2025 03:22:23.968      86.165834684    
01 Mar 2025 16:24:09.061    01 Mar 2025 16:25:29.208      80.146527034    
02 Mar 2025 03:07:25.768    02 Mar 2025 03:08:24.929      59.160242882    
02 Mar 2025 16:10:36.924    02 Mar 2025 16:11:25.180      48.256083182    
07 Mar 2025 03:32:22.974    07 Mar 2025 03:33:11.760      48.785994749    
07 Mar 2025 16:35:23.152    07 Mar 2025 16:36:11.339      48.187728028    
08 Mar 2025 03:18:09.850    08 Mar 2025 03:19:33.500      83.650041337    
08 Mar 2025 16:21:11.231    08 Mar 2025 16:22:32.303      81.072461524    
09 Mar 2025 03:04:41.782    09 Mar 2025 03:05:10.355      28.573581751    
14 Mar 2025 03:28:20.920    14 Mar 2025 03:29:27.675      66.755069734    
14 Mar 2025 16:31:13.556    14 Mar 2025 16:32:23.642      70.086414192    
15 Mar 2025 03:14:09.885    15 Mar 2025 03:15:26.917      77.032131271    
15 Mar 2025 16:17:03.502    15 Mar 2025 16:18:21.303      77.800891874    
21 Mar 2025 03:23:06.536    21 Mar 2025 03:24:24.641      78.104909160    
21 Mar 2025 16:25:54.592    21 Mar 2025 16:27:18.481      83.888790419    
22 Mar 2025 03:09:00.127    22 Mar 2025 03:09:58.843      58.716069383    
22 Mar 2025 16:11:48.080    22 Mar 2025 16:12:50.502      62.422126089    
27 Mar 2025 03:31:21.355    27 Mar 2025 03:32:12.726      51.371585985    
27 Mar 2025 16:34:02.548    27 Mar 2025 16:35:08.097      65.548483352    
28 Mar 2025 03:16:41.170    28 Mar 2025 03:18:00.342      79.172149335    
28 Mar 2025 16:19:26.650    28 Mar 2025 16:20:53.321      86.670624116    
03 Apr 2025 03:23:37.219    03 Apr 2025 03:24:55.611      78.392434318    
03 Apr 2025 16:26:20.748    03 Apr 2025 16:27:49.571      88.822593621    
04 Apr 2025 03:09:10.215    04 Apr 2025 03:10:10.464      60.249133199    
04 Apr 2025 16:11:53.943    04 Apr 2025 16:13:02.868      68.924791797    
09 Apr 2025 03:29:45.347    09 Apr 2025 03:30:48.982      63.634819421    
09 Apr 2025 16:32:26.437    09 Apr 2025 16:33:44.190      77.752847539    
10 Apr 2025 03:14:51.696    10 Apr 2025 03:16:11.217      79.520990106    
10 Apr 2025 16:17:36.153    10 Apr 2025 16:19:04.535      88.382182235    
15 Apr 2025 03:35:10.066    15 Apr 2025 03:35:38.262      28.195582959    
15 Apr 2025 16:37:44.545    15 Apr 2025 16:38:37.937      53.391553718    
16 Apr 2025 03:19:46.361    16 Apr 2025 03:21:11.924      85.563169036    
16 Apr 2025 16:22:31.135    16 Apr 2025 16:24:04.984      93.849005329    
17 Apr 2025 03:05:16.203    17 Apr 2025 03:05:52.805      36.602036934    
17 Apr 2025 16:07:59.835    17 Apr 2025 16:08:43.376      43.541059911    
22 Apr 2025 03:23:52.070    22 Apr 2025 03:25:17.267      85.196441808    
22 Apr 2025 16:26:36.432    22 Apr 2025 16:28:08.472      92.040006327    
23 Apr 2025 03:08:57.679    23 Apr 2025 03:10:04.560      66.880627605    
23 Apr 2025 16:11:42.727    23 Apr 2025 16:12:52.862      70.134708099    
28 Apr 2025 03:27:08.512    28 Apr 2025 03:28:29.970      81.458334695    
28 Apr 2025 16:29:51.318    28 Apr 2025 16:31:17.446      86.128373235    
29 Apr 2025 03:11:56.889    29 Apr 2025 03:13:17.177      80.287808203    
29 Apr 2025 16:14:41.221    29 Apr 2025 16:16:01.751      80.529924924    
04 May 2025 03:29:35.221    04 May 2025 03:30:51.689      76.467898325    
04 May 2025 16:32:15.029    04 May 2025 16:33:33.432      78.402430681    
05 May 2025 03:14:09.147    05 May 2025 03:15:36.313      87.166583317    
05 May 2025 16:16:50.930    05 May 2025 16:18:15.074      84.144214878    
10 May 2025 03:31:11.490    10 May 2025 03:32:23.436      71.945908607    
10 May 2025 16:33:46.656    10 May 2025 16:34:57.629      70.972881548    
11 May 2025 03:15:33.091    11 May 2025 03:17:03.486      90.395220439    
11 May 2025 16:18:10.375    11 May 2025 16:19:34.523      84.147478163    
16 May 2025 03:31:56.094    16 May 2025 03:33:05.583      69.489048945    
16 May 2025 16:34:24.949    16 May 2025 16:35:30.786      65.837187530    
17 May 2025 03:16:07.612    17 May 2025 03:17:38.757      91.145000746    
17 May 2025 16:18:38.487    17 May 2025 16:20:00.557      82.069392409    
22 May 2025 03:31:47.822    22 May 2025 03:32:57.765      69.943779556    
22 May 2025 16:34:08.768    22 May 2025 16:35:13.300      64.532042854    
23 May 2025 03:15:51.724    23 May 2025 03:17:21.544      89.819707442    
23 May 2025 16:18:14.675    23 May 2025 16:19:33.120      78.444088320    


Number of events : 254


Observer: TorontoGS
Start Time (UTC)            Stop Time (UTC)               Duration (s)         
01 Jun 2024 03:18:44.348    01 Jun 2024 03:26:05.747      441.39955714    
01 Jun 2024 14:53:43.897    01 Jun 2024 14:56:16.925      153.02776363    
01 Jun 2024 16:25:50.092    01 Jun 2024 16:33:49.098      479.00682619    
02 Jun 2024 03:09:55.579    02 Jun 2024 03:17:18.103      442.52379793    
02 Jun 2024 16:16:59.450    02 Jun 2024 16:25:05.370      485.91928147    
03 Jun 2024 03:01:09.240    03 Jun 2024 03:08:27.728      438.48791941    
03 Jun 2024 16:08:09.902    03 Jun 2024 16:16:17.702      487.79957138    
04 Jun 2024 02:52:25.374    04 Jun 2024 02:59:34.609      429.23496593    
04 Jun 2024 04:29:12.898    04 Jun 2024 04:32:12.923      180.02462829    
04 Jun 2024 15:59:21.503    04 Jun 2024 16:07:26.052      484.54876140    
04 Jun 2024 17:35:38.486    04 Jun 2024 17:38:59.133      200.64748999    
05 Jun 2024 02:43:44.130    05 Jun 2024 02:50:38.637      414.50724079    
05 Jun 2024 04:19:31.808    05 Jun 2024 04:24:02.978      271.17003169    
05 Jun 2024 15:50:34.389    05 Jun 2024 15:58:30.290      475.90076372    
05 Jun 2024 17:26:13.643    05 Jun 2024 17:30:55.128      281.48467349    
06 Jun 2024 02:35:05.782    06 Jun 2024 02:41:39.572      393.78948924    
06 Jun 2024 04:10:06.610    06 Jun 2024 04:15:36.964      330.35400866    
06 Jun 2024 15:41:48.799    06 Jun 2024 15:49:30.183      461.38397305    
06 Jun 2024 17:16:59.377    06 Jun 2024 17:22:37.636      338.25990774    
07 Jun 2024 02:26:30.802    07 Jun 2024 02:32:36.980      366.17739707    
07 Jun 2024 04:00:49.462    07 Jun 2024 04:07:02.721      373.25927408    
07 Jun 2024 15:33:05.111    07 Jun 2024 15:40:25.349      440.23813906    
07 Jun 2024 17:07:50.376    07 Jun 2024 17:14:11.992      381.61590529    
08 Jun 2024 02:18:00.007    08 Jun 2024 02:23:30.084      330.07692652    
08 Jun 2024 03:51:37.697    08 Jun 2024 03:58:22.917      405.21995996    
08 Jun 2024 15:24:23.934    08 Jun 2024 15:31:15.178      411.24394911    
08 Jun 2024 16:58:44.649    08 Jun 2024 17:05:40.209      415.56026515    
09 Jun 2024 02:09:34.954    09 Jun 2024 02:14:17.372      282.41831482    
09 Jun 2024 03:42:30.036    09 Jun 2024 03:49:38.841      428.80414763    
09 Jun 2024 15:15:46.290    09 Jun 2024 15:21:58.637      372.34705029    
09 Jun 2024 16:49:41.214    09 Jun 2024 16:57:03.291      442.07702656    
10 Jun 2024 02:01:19.307    10 Jun 2024 02:04:55.222      215.91469715    
10 Jun 2024 03:33:25.768    10 Jun 2024 03:40:51.215      445.44713062    
10 Jun 2024 15:07:14.106    10 Jun 2024 15:12:33.788      319.68230596    
10 Jun 2024 16:40:39.529    10 Jun 2024 16:48:21.804      462.27427984    
11 Jun 2024 01:53:29.268    11 Jun 2024 01:55:07.479      98.211067705    
11 Jun 2024 03:24:24.472    11 Jun 2024 03:32:00.476      456.00479910    
11 Jun 2024 14:58:51.929    11 Jun 2024 15:02:56.065      244.13657561    
11 Jun 2024 16:31:39.281    11 Jun 2024 16:39:36.078      476.79634388    
12 Jun 2024 03:15:25.903    12 Jun 2024 03:23:06.888      460.98581526    
12 Jun 2024 14:51:00.953    12 Jun 2024 14:52:44.247      103.29407926    
12 Jun 2024 16:22:40.299    12 Jun 2024 16:30:46.301      486.00123134    
13 Jun 2024 03:06:29.938    13 Jun 2024 03:14:10.597      460.65899553    
13 Jun 2024 16:13:42.513    13 Jun 2024 16:21:52.556      490.04270855    
14 Jun 2024 02:57:36.550    14 Jun 2024 03:05:11.651      455.10072220    
14 Jun 2024 04:35:02.686    14 Jun 2024 04:37:18.560      135.87411402    
14 Jun 2024 16:04:45.937    14 Jun 2024 16:12:54.841      488.90473035    
14 Jun 2024 17:41:37.191    14 Jun 2024 17:43:43.757      126.56578403    
15 Jun 2024 02:48:45.806    15 Jun 2024 02:56:10.011      444.20509570    
15 Jun 2024 04:25:00.433    15 Jun 2024 04:29:14.332      253.89884695    
15 Jun 2024 15:55:50.663    15 Jun 2024 16:03:53.068      482.40518428    
15 Jun 2024 17:31:49.897    15 Jun 2024 17:35:48.337      238.43974000    
16 Jun 2024 02:39:57.874    16 Jun 2024 02:47:05.535      427.66064334    
16 Jun 2024 04:15:22.464    16 Jun 2024 04:20:45.837      323.37221723    
16 Jun 2024 15:46:56.878    16 Jun 2024 15:54:47.050      470.17152031    
16 Jun 2024 17:22:23.159    16 Jun 2024 17:27:29.482      306.32233297    
17 Jun 2024 02:31:13.062    17 Jun 2024 02:37:57.944      404.88177845    
17 Jun 2024 04:05:54.574    17 Jun 2024 04:12:07.264      372.69047750    
17 Jun 2024 15:38:04.894    17 Jun 2024 15:45:36.473      451.57883267    
17 Jun 2024 17:13:04.069    17 Jun 2024 17:19:00.120      356.05164890    
18 Jun 2024 02:22:31.891    18 Jun 2024 02:28:46.747      374.85592228    
18 Jun 2024 03:56:33.010    18 Jun 2024 04:03:22.356      409.34582020    
18 Jun 2024 15:29:15.208    18 Jun 2024 15:36:20.830      425.62127664    
18 Jun 2024 17:03:49.281    18 Jun 2024 17:10:23.616      394.33491823    
19 Jun 2024 02:13:55.270    19 Jun 2024 02:19:31.063      335.79224045    
19 Jun 2024 03:47:16.109    19 Jun 2024 03:54:32.770      436.66159187    
19 Jun 2024 15:20:28.643    19 Jun 2024 15:26:59.282      390.63810760    
19 Jun 2024 16:54:37.345    19 Jun 2024 17:01:41.438      424.09367447    
20 Jun 2024 02:05:24.972    20 Jun 2024 02:10:09.150      284.17845068    
20 Jun 2024 03:38:02.972    20 Jun 2024 03:45:39.400      456.42763583    
20 Jun 2024 15:11:46.676    20 Jun 2024 15:17:30.329      343.65310828    
20 Jun 2024 16:45:27.496    20 Jun 2024 16:52:54.362      446.86612564    
21 Jun 2024 01:57:05.373    21 Jun 2024 02:00:36.660      211.28704799    
21 Jun 2024 03:28:53.072    21 Jun 2024 03:36:42.771      469.69905883    
21 Jun 2024 15:03:12.446    21 Jun 2024 15:07:50.804      278.35845610    
21 Jun 2024 16:36:19.300    21 Jun 2024 16:44:02.830      463.52987678    
22 Jun 2024 01:49:21.325    22 Jun 2024 01:50:28.770      67.444545287    
22 Jun 2024 03:19:46.090    22 Jun 2024 03:27:43.204      477.11338475    
22 Jun 2024 14:54:55.876    22 Jun 2024 14:57:50.744      174.86774996    
22 Jun 2024 16:27:12.512    22 Jun 2024 16:35:07.097      474.58551612    
23 Jun 2024 03:10:41.846    23 Jun 2024 03:18:40.881      479.03515283    
23 Jun 2024 16:18:07.006    23 Jun 2024 16:26:07.288      480.28292852    
24 Jun 2024 03:01:40.261    24 Jun 2024 03:09:35.885      475.62380447    
24 Jun 2024 04:39:44.430    24 Jun 2024 04:41:10.481      86.050345784    
24 Jun 2024 16:09:02.754    24 Jun 2024 16:17:03.431      480.67719061    
25 Jun 2024 02:52:41.352    25 Jun 2024 03:00:28.211      466.85895027    
25 Jun 2024 04:29:17.469    25 Jun 2024 04:33:16.467      238.99716914    
25 Jun 2024 15:59:59.819    25 Jun 2024 16:07:55.463      475.64450379    
25 Jun 2024 17:36:24.566    25 Jun 2024 17:39:18.214      173.64777506    
26 Jun 2024 02:43:45.228    26 Jun 2024 02:51:17.761      452.53329371    
26 Jun 2024 04:19:27.967    26 Jun 2024 04:24:45.064      317.09621967    
26 Jun 2024 15:50:58.355    26 Jun 2024 15:58:43.222      464.86651363    
26 Jun 2024 17:26:41.066    26 Jun 2024 17:31:02.428      261.36121721    
27 Jun 2024 02:34:52.116    27 Jun 2024 02:42:04.325      432.20905492    
27 Jun 2024 04:09:50.456    27 Jun 2024 04:16:01.712      371.25568532    
27 Jun 2024 15:41:58.643    27 Jun 2024 15:49:26.420      447.77716852    
27 Jun 2024 17:17:10.615    27 Jun 2024 17:22:30.658      320.04272758    
28 Jun 2024 02:26:02.411    28 Jun 2024 02:32:47.527      405.11542767    
28 Jun 2024 04:00:20.060    28 Jun 2024 04:07:11.266      411.20623337    
28 Jun 2024 15:33:01.140    28 Jun 2024 15:40:04.587      423.44721789    
28 Jun 2024 17:07:46.176    28 Jun 2024 17:13:49.960      363.78353181    
29 Jun 2024 02:17:16.790    29 Jun 2024 02:23:26.712      369.92279361    
29 Jun 2024 03:50:54.760    29 Jun 2024 03:58:15.727      440.96709369    
29 Jun 2024 15:24:06.608    29 Jun 2024 15:30:36.945      390.33736082    
29 Jun 2024 16:58:25.374    29 Jun 2024 17:05:02.724      397.35017357    
30 Jun 2024 02:08:36.479    30 Jun 2024 02:14:00.675      324.19615192    
